datetime,city,state,country,shape,duration (seconds),duration (hours/min),comments,date posted,latitude,longitude
10/10/1970 16:00,bellmore,ny,us,disk,1800,30 min.,silver disc seen by family and neighbors,5/11/2000,40.6686111,-73.5275000
10/10/1977 12:00,san antonio,tx,us,other,30,30 seconds,i was about six or seven and my family and me were sitting next to a window at home eating when a type of dark ball hit the screen wind,2/24/2005,29.4238889,-98.4933333
10/10/1985 20:25,leeds (uk/england),,gb,triangle,600,10min,three light in the sky that led to a big black silent triangle shaped craft.,3/4/2003,53.8,-1.583333
10/10/1992 20:15,seymour,tn,us,cigar,60,1min. 39s,stationary elongated ufo 200ft above vacant field with city lights on bottom,10/31/2008,35.8905556,-83.7247222
10/10/1997 16:00,connersville,in,us,delta,14400,4 hours,3 differants types   cluster  delta   and one in a 3 pointed star design . followed it for six miles .,1/28/1999,39.6411111,-85.1411111
10/10/1998 23:50,delano,tn,us,fireball,15,15 seconds,i came home from work one night and i seen a bright fire like ball go across the top ofthe mountain and it was going fast then it stopp,3/21/2003,35.2650000,-84.5533333
10/10/2000 06:15,boynton beach,fl,us,other,10,10 seconds,unusual light formation moving extremely fast across the sky.,12/2/2000,26.5250000,-80.0666667
10/10/2001 22:00,phoenix,az,us,triangle,60,less then a minute,triangle shaped craft spotted flying west to east over mid town phoenix on 10/10/01 at 22:00 hours 4 light dim making no sounellow,11/20/2001,33.4483333,-112.0733333
10/10/2003 20:05,grand view,id,us,light,15,12-15 seconds,bright light above mt. home afb,10/15/2003,42.9897222,-116.0925000
10/10/2004 15:00,rock island,il,us,sphere,3600,1 hour,the sky was clear  and the objects at times appeared to rotate slowly.,10/27/2004,41.5094444,-90.5786111
10/10/2005 21:00,lewisburg,tn,us,unknown,240,4 minutes,like a grouping of balloons with a slight glow to them,12/7/2006,35.4491667,-86.7888889
10/10/2006 22:40,waycross,ga,us,light,120,2 minutes,redish orange light viewed from waycross  ga. moving northwest and suddenly just goes out.,10/30/2006,31.2133333,-82.3541667
10/10/2007 20:30,conyers,ga,us,unknown,3600,1 hour,craft seen falling and dissapears into thin air.  ((nuforc note:  missile launch??  we have no explanation for the aircraft.  pd)),11/28/2007,33.6675000,-84.0177778
10/10/2008 04:00,carlin,nv,us,disk,600,10 mins,ufo sighting in carlin  nv  at the pilot truck stop. 500 lights on object0: yes,7/19/2010,40.7138889,-116.1030556
10/10/2008 22:30,madison,wi,us,circle,20,20 secounds,tanslucent orange/yellow ufo in madison wi,10/31/2008,43.0730556,-89.4011111
10/10/2010 02:30,harrisburg,pa,us,circle,240,4  minutes,possible ufo sighting,11/21/2010,40.2736111,-76.8847222
10/10/2010 21:00,kykotsmovi,az,us,disk,7200,2 hours,we saw  what seem to be a space craft in the eastern sky of northern az  on 10-10-10.,1/31/2011,35.8752778,-110.6197222
10/10/2011 20:00,hamilton (canada),on,ca,flash,4,2-4 seconds,strange flash in the sky,10/19/2011,43.25,-79.833333
10/10/2012 20:00,moundville,al,us,changing,240,4 minutes,orange fiery lighting objects changing locations.,10/30/2012,32.9975000,-87.6300000
10/10/2013 02:32,palm harbor,fl,us,chevron,5,5 seconds,tracking north to south at apx 2500 ft. a very fast  semi-transparent chevron shape craft  slightly larger than a commercial plane.,10/14/2013,28.0777778,-82.7638889
10/10/2013 20:35,canton,mi,us,triangle,180,3 minutes,black triangle aircraft with white lights on each point  completely silent  seen flying low sw to ne.,10/14/2013,42.3086111,-83.4822222
10/11/1994 04:00,riverside,ca,us,chevron,4,4 seconds,double white lights in chevron shape flying north to south about the size of the constellation of the pleades  covered half the sky in,1/28/1999,33.9533333,-117.3952778
10/11/1999 07:40,three rivers,mi,us,oval,600,10minuets,while dirving to work this monday morning the 11th of october i spotted two jets flying toward the horizion. becouse of the rising sun,10/19/1999,41.9438889,-85.6325000
10/11/1999 21:45,eureka springs,ar,us,light,900,15 min.,bright light due south  traveling east extremely slowly. bright flash given off from object every 10 seconds  with a dim flash every 3,11/2/1999,36.4011111,-93.7377778
10/11/2001 23:49,lima,oh,us,teardrop,300,5 minutes,we saw three teardroped shaped crafts with slowy flashing lights moving very slow then taking off very rapidly.,10/12/2001,40.7425000,-84.1052778
10/11/2003 20:30,bloomington,in,us,disk,180,3.minutes,saucer shaped craft with kaleidoscope lights.,10/15/2003,39.1652778,-86.5263889
10/11/2004 23:15,williamsville,ny,us,light,540,9 minutes,hovering light seen over williamsville  ny,10/27/2004,42.9638889,-78.7380556
10/11/2005 21:50,rotherham (south yorkshire) (uk/england),,gb,oval,3600,1hr,a light it was a oval shape duration was 1hr,12/16/2005,53.433333,-1.35
10/11/2007 04:40,melbourne,ky,us,oval,360,6 minutes,flashing lights spotted near ohio river,11/28/2007,39.0297222,-84.3663889
10/11/2008 19:00,riverside,ca,us,light,60,1 min approx,bright light moving from nw to se,10/31/2008,33.9533333,-117.3952778
10/11/2009 19:00,north smithfield,ri,us,circle,15,10 to 15 seconds,i was watching the sky like i always do on a clear night because you can always see what appear to be stars riding along the night sky.,12/12/2009,41.9666667,-71.5500000
10/11/2011 08:40,henderson,nv,us,other,180,3 minutes,ufo report:  date: october 11th  2011 location: las vegas  nv (near henderson  nv) time: 8:40 a.m. near las vegas nevada  i was out,10/19/2011,36.0397222,-114.9811111
10/11/2012 19:30,forty fort,pa,us,fireball,720,12 minutes,slow moving bright light,10/30/2012,41.2788889,-75.8786111
10/11/2013 16:01,pickering (canada),on,ca,circle,300,5 minutes,glowing blue sphere in ontario  canada.,1/30/2014,43.866667,-79.033333
10/11/2013 21:00,fayetteville,ny,us,chevron,90,90 seconds,brilliant slow moving light in fayetteville ny.,10/14/2013,43.0297222,-76.0047222
10/1/1957 16:00,nelchina (near),ak,us,unknown,180,3 minutes maximum,this incident occurred about october of 1956 or ‘57. at the time  i was assistant station manager for a major airline in anchorage as,12/7/2006,61.9919444,-146.7686111
10/1/1966 22:00,anacortes,wa,us,light,1200,20 mins.,20 miles driving toward anacortes a friend and i were listening to a radio station in anacortes. the dj said he had recieved calls abou,4/15/2000,48.5127778,-122.6113889
10/1/1970 19:00,tampa,fl,us,other,900,15 minutes,36 year old reports an object he saw with his mother 31 years ago.,8/20/2001,27.9472222,-82.4586111
10/1/1973 21:30,hixson,tn,us,oval,37800,1 1/2 hours,oval  brilliant lights  red glow  windows  metallic  no sound; after we lost sight of it and went to find it  it showed itself to us.,4/16/2005,35.1405556,-85.2327778
10/1/1978 00:00,windsor,nc,us,cone,300,5min,saw while parking with girl friend. rising full moonin back ground. 25 ft up. f 50 yrs away over field. hovering. completly silent. one,8/28/2003,35.9983333,-76.9463889
10/1/1980 22:00,jersey city,nj,us,cigar,180,2-3 minutes,blimp shaped object with extremely bright lights hovered then rapidly dashed into the night s sky.,10/20/2005,40.7280556,-74.0780556
10/1/1985 21:30,jefferson,oh,us,triangle,3600,1 hour,three lights possibly single or part of object hovered over treeline changing color and shape.,12/2/2000,41.7386111,-80.7700000
10/1/1989 20:00,pawling,ny,us,oval,300,5 minutes,large oval craft with lights above house on north side of route 55 between pawling and freedom plains  ny  late 1980 s.,5/11/2005,41.5619444,-73.6030556
10/1/1991 22:00,lafayette,ga,us,other,900,15 min.,a small globe descended from beneath the larger craft.,1/17/2004,34.7047222,-85.2819444
10/1/1994 23:00,las vegas,nv,us,circle,5,5 seconds,bright green object in flight allmost colided with my aircraft.,10/15/2002,36.1750000,-115.1363889
10/1/1996 01:00,west houston (greenridge @ westiemer rd.; near galleria),tx,us,formation,30,30 seconds,three bright orange-white lights moving in a v formation from northeast to southwest the center light would change position front to re,1/28/1999,29.7630556,-95.3630556
10/1/1997 21:00,hyannis,ma,us,triangle,60,1 minute,wife and i drove onto start of our street  noticed two lights not usually there.  stopped car  got out  saw two crafts.  no noise and h,6/23/1999,41.6527778,-70.2833333
10/1/1998 10:00,san francisco,ca,us,sphere,420,6-7 minutes,soccer balls over sf,2/3/2012,37.7750000,-122.4183333
10/1/1999 04:40,elyria,oh,us,triangle,300,5or more minutes,the front was shaped like a triangle  with two lights on the wing tips. blueish-gray in color...low rumbling sound  moving very slow.,10/2/1999,41.3683333,-82.1077778
10/1/2000 20:00,belmont,ca,us,unknown,15,15 seconds,faint starlike object  moving in space at high speed stopped and lined up with other 3 faint stars.,12/2/2000,37.5202778,-122.2747222
10/1/2001 20:35,greene,me,us,oval,10,10 seconds,incandescent light-greenish orb with red halo spotted in sky over northern woods..................,10/12/2001,44.1897222,-70.1408333
10/1/2002 05:42,seattle,wa,us,teardrop,3,3 seconds,initially a comet in appearance  but speed was too slow.,10/15/2002,47.6063889,-122.3308333
10/1/2002 18:00,orlando,fl,us,other,4,4seconds,unusual shaped and transparent color crafts appear and one follow the other in new direction,10/11/2005,28.5380556,-81.3794444
10/1/2003 20:05,san diego,ca,us,unknown,240,4 minutes,us and  the object,4/27/2007,32.7152778,-117.1563889
10/1/2004 23:00,dunstable (uk/england),,gb,fireball,300,5 mins,fireball burned me  ((nuforc note:  may not be a serious report.  pd)),10/27/2004,51.883333,-.516667
10/1/2005 01:00,oak forest,il,us,light,600,five to ten minutes,that night after closing my garage door i glanced as i normally do towards the north star..to my amazement just west of the north star,10/11/2005,41.6027778,-87.7438889
10/1/2005 01:10,manhattan,il,us,triangle,10,10 seconds,tinley park lights are back!!!,10/11/2005,41.4225000,-87.9858333
10/1/2005 19:58,rogers,mn,us,triangle,1020,17 minutes,triangular ufo hovered with stench,10/20/2005,45.1888889,-93.5527778
10/1/2006 01:30,irving,tx,us,circle,2,seconds,as we was driving down shady grove heading west we saw a bright blue light steaking across the sky  dipping in and out of the clouds be,10/30/2006,32.8138889,-96.9486111
10/1/2006 20:19,orchards,wa,us,fireball,1,1 second,sun 10/01/2006 8:19 pm pst metiorite descending slowly and decellerating. left a trail of green and yellow sparks. at n80°e from orchar,10/30/2006,45.6666667,-122.5597222
10/1/2006 23:15,boulder,co,us,oval,30,30 sec,october 1  2006 meteor reported across skies of arizona  new mexico  and colorado,10/30/2006,40.0150000,-105.2700000
10/1/2006 23:20,raton,nm,us,formation,30,30secs,7 bright lights over northeast new mexico,10/30/2006,36.9033333,-104.4386111
10/1/2007 02:00,adelaide  (south australia),,au,oval,300,5 mins,dancing & flashing ufo in glenelg  south australia,10/8/2007,-34.928661,138.598633
10/1/2008 00:00,conway,ar,us,triangle,600,10 minutes,massive/low/silent black triangle cruises back and forth over downtown conway,5/15/2013,35.0886111,-92.4419444
10/1/2008 20:00,glenrock,wy,us,unknown,1200,several hours,stationary object just above ne horizon with flashing red  green and white lights.,10/31/2008,42.8613889,-105.8716667
10/1/2008 22:55,kingsport,tn,us,triangle,3,3 seconds,east tennessee  3 orb mass in the sky,10/31/2008,36.5483333,-82.5619444
10/1/2010 06:25,aripeka,fl,us,light,8,8 sec,white light (star) traveling very fast in sky.,11/21/2010,28.4319444,-82.6644444
10/1/2011 00:53,thunder bay (canada),on,ca,other,5,4-5 seconds,0:53 or 12:53 am est  saturday october 1st 2011  thunder bay  on  t like figure  4 seconds  dim orange lights  silent  500 lights on ob,10/10/2011,48.4,-89.233333
10/1/2011 21:43,kansas city,mo,us,fireball,60,60 seconds,orange fireball crosses the sky in kansas city.,10/10/2011,39.0997222,-94.5783333
10/1/2012 20:00,eugene,or,us,light,180,hours,star looking lights with flashing red  green  and purple lights that just hover around ! not going anywhere!  ((star?)),10/30/2012,44.0522222,-123.0855556
10/1/2013 12:30,pittsburgh,pa,us,unknown,60,1 minute,driving across the glenfied bridge  northbound  saw an odd shape as i was looking southeast down the ohio. it wasn t a plane. it wa,10/14/2013,40.4405556,-79.9961111
10/1/2013 23:00,london (uk/england),,gb,fireball,30,30 seconds,orange fireball seen hovering in london sky before vanishing.,10/3/2013,51.514125,-.093689
10/12/1982 05:30,pearlington,ms,us,light,29,29 seconds,round light which was observed going into space with moves and silence that we have never seen before.,12/12/2013,30.2463889,-89.6111111
10/12/1998 04:00,lincoln,ne,us,egg,11,11 sec,3 lights not as egg shaped but close  thumb nail. flying in tryangle formation flew over for 7 seconds not to close but not far away. f,11/1/1998,40.8000000,-96.6666667
10/12/1999 22:15,tulsa,ok,us,other,30,30 seconds,it was maybe 500ft above me  no lights  traveling very slow   and completely silent.,10/31/2008,36.1538889,-95.9925000
10/12/2001 15:40,denver,co,us,disk,120,2 minutes,as i was driving in my car on the way home from work  i stopped at the red light turning west on colfax avenue.  i was on the intersect,11/20/2001,39.7391667,-104.9841667
10/12/2002 20:00,paris,tx,us,triangle,300,5 minutes,triangle ufo with blue/white lights,11/21/2010,33.6608333,-95.5552778
10/12/2004 00:00,fort morgan,co,us,sphere,1500,25 min.,it was a sphere shaped object  with lights on it....it had left jet stream marks in the sky then landed.,10/27/2004,40.2502778,-103.7994444
10/12/2005 02:05,longwood,fl,us,formation,20,20 seconds,two glowing discs slowly glide accross longwood fl night sky.,10/20/2005,28.7027778,-81.3386111
10/12/2006 18:30,victoria (canada),bc,ca,unknown,120,< 2 minutes,saw bright large light 2000 feet juan de fuca straitƽ miles south of victoria dissappeared with out moving,10/30/2006,46.216667,-63.483333
10/12/2007 22:00,york,pa,us,oval,3300,55 minutes,another sighting in york pa!!!,11/28/2007,39.9625000,-76.7280556
10/12/2008 21:00,stafford (uk/england),,gb,light,60,1 minute,another ufo  definately watching me and sending signals.,1/10/2009,52.833333,-2
10/12/2010 10:00,milpitas,ca,us,other,300,5 minutes,sorry about this  but i just filed a report about the white dots over milpitas and i believe i got the day wrong.  i reported wednesday,11/21/2010,37.4283333,-121.9055556
10/12/2011 17:11,waco,tx,us,changing,900,15 min,no noise precision flying unreal altitude gains somewhat creepy and appeared as many and left as one,10/19/2011,31.5491667,-97.1463889
10/12/2012 15:00,clarksville,tn,us,circle,120,2 minutes,very huge mass with black figured markings no outer rim,10/30/2012,36.5297222,-87.3594444
10/12/2012 20:00,cumberland,md,us,light,10,6 to 10 seconds,stunned to what i seen. bright. semi stationary light. very bright. seen no form. just the light.,10/30/2012,39.6527778,-78.7627778
10/12/2013 03:08,austin,tx,us,unknown,17,recorded 17 seconds,gold hazy  being  hovering (like standing on edge of craft) while over apt building in nw austin - amber lights on edges.,10/23/2013,30.2669444,-97.7427778
10/12/2013 20:00,suffolk,va,us,triangle,900,15 minutes,9 sets of 3 triangular aircraft.,10/14/2013,36.7280556,-76.5838889
10/12/2013 22:00,aspen (~2 hrs. w of; driving),co,us,formation,30,15-30 seconds,3 orbs in sky remote colorado oct 12 2013  moving in up and down to side to side plus sign formations .,12/23/2013,39.1911111,-106.8169444
10/13/1969 22:00,memphis,tn,us,formation,3600,1 hour,one object joining 9 others to complete a triangular formation.,9/24/2003,35.1494444,-90.0488889
10/13/1996 20:00,encino,ca,us,triangle,3,3 seconds,very large v shaped craft flys from horizon to horizon in 3 seconds  very low and silent (los angeles),2/1/2007,34.1591667,-118.5002778
10/13/2000 18:30,wichita,ks,us,other,90,1:30,did not see a craft  just a bursting brilliant meteor shower  several chunks of debris came from it.  this was a natural phenomenon.  l,12/2/2000,37.6922222,-97.3372222
10/13/2000 22:10,portland,or,us,light,3,00:03,4 white lights initially stationary suddenly merged into one light and then when out.,12/2/2000,45.5236111,-122.6750000
10/13/2002 23:00,ship bottom,nj,us,triangle,60,1 minute,small  black triangle shaped object  flying silently and slowly overhead olong nj beach.,3/11/2006,39.6427778,-74.1808333
10/13/2003 21:20,denver,co,us,chevron,45,45 seconds,v formation of white lights move with no sound,10/17/2003,39.7391667,-104.9841667
10/13/2004 19:00,oceanside,or,us,disk,120,2min.or less,it  look s like many pictures i have seen of so called flying saucer s like bright metal in the sun. the sun was below the horizon.,10/27/2004,45.4611111,-123.9666667
10/13/2005 17:32,terlton,ok,us,cylinder,120,2 minutes,this object looked like a barrel and made no sound but moved in a straight line at an incredible speed.,2/14/2006,36.1880556,-96.4900000
10/13/2006 10:30,vandenberg village,ca,us,disk,60,less than 1 minute,platinum color saucer weaving through fog/mist in hills by ocean object vanished into small white spark as soon as i pointed it out,10/10/2011,34.7083333,-120.4666667
10/13/2007 11:15,fairfax,va,us,sphere,600,ten minutes,spherical object traveling eastward then northward from dulles airport  paralleling route 50 in fairfax va.,11/28/2007,38.8461111,-77.3066667
10/13/2008 10:15,san francisco,ca,us,circle,900,15m,what caught my attention was how close they were together.  i thought it was vapor trials from two planes that was going to land at sfo,10/31/2008,37.7750000,-122.4183333
10/13/2010 04:45,rochester,ny,us,light,3600,60 minutes,orange light seen hovering and moving over rochester,11/21/2010,43.1547222,-77.6158333
10/13/2010 20:40,grandview,mo,us,chevron,60,1 minute,v-shaped aircraft moving slow and low. 5 glowing lights underneath. no cockpit  or fusilage,5/12/2011,38.8858333,-94.5327778
10/13/2011 19:20,merriam,ks,us,triangle,15,15 seconds,triangular  almost hovering but very slow movement  5 bright lights  no sound,10/19/2011,39.0236111,-94.6933333
10/13/2012 02:00,salt lake city,ut,us,other,120,2 minutes,it was a blue light in the sky  i was driving home after i drop a friend off in rose park  than i realize that there was a blue light,12/20/2012,40.7608333,-111.8902778
10/13/2012 20:30,glasgow (uk/scotland),,gb,circle,300,5 minutes,strange orange orb over glasgow  scotland  uk,10/30/2012,55.833333,-4.25
10/13/2012 22:30,seaford (uk/england),,gb,light,600,10 minutes,unusual set of 3 lights captured on camera,10/30/2012,50.766667,.1
10/13/2013 19:00,irondequoit,ny,us,fireball,600,10 minutes,fireball like objects floating in the sky.....same path.,10/14/2013,43.2133333,-77.5800000
10/13/2013 20:45,gobles,mi,us,unknown,180,3 minutes,bright light that stayed put then streaked away suddenly,10/14/2013,42.3608333,-85.8794444
10/14/1974 20:00,oran,mo,us,,15,15 seconds,saw triangle shaped craft  light on each corner  low overhead  few hundred feet above.  as craft went by saw light on top. soft noise l,11/21/2010,37.0850000,-89.6552778
10/14/1995 22:30,spokane,wa,us,,20,20 sec.,empl. of krem-tv calls regarding multiple sightings of bright green object w/ orange tail reported by multiple callers.,11/2/1999,47.6588889,-117.4250000
10/14/1999 20:20,mead  (near spokane),wa,us,light,3,3 seconds,i just let my dog out and look up and saw a blue light. i assume it was a shooting star however: it seemed to low and slow. i was looki,10/19/1999,47.7675000,-117.3538889
10/14/2001 06:00,adkins,tx,us,diamond,120,2:00,erratically moving bright object with red and blue aura,11/20/2001,29.3927778,-98.2369444
10/14/2002 19:00,los angeles,ca,us,circle,1200,15 to 20 minutes,what i saw was orange and white light radiating from one and only one cloud in the sky and it was not the sun or moon.,10/15/2002,34.0522222,-118.2427778
10/14/2002 19:05,madras,or,us,chevron,30,15-30 seconds,saw a 2 tailed chevron shaped object  head like a snowball flying over cascades  possible vandenberg missile?,10/15/2002,44.6336111,-121.1283333
10/14/2002 22:30,oshawa (canada),on,ca,light,1200,15-20 min.,up to 7 silent orange lights seen hovering for quite a while. ((vandenberg rocket launch.  pd)),10/15/2002,43.9,-78.866667
10/14/2004 19:37,prescott (southwest of),az,us,light,7200,2 hours,bright orange hued lights that pulsed  faded  disappeared  reappeared.  ((nuforc note:  possible celestial bodies??  pd)),10/27/2004,34.5400000,-112.4677778
10/14/2005 21:30,park rapids,mn,us,triangle,1200,20+ min.,((nuforc note:  probable sighting of mars?  pd))  floating  moving  object in park rapids mn.,10/20/2005,46.9222222,-95.0583333
10/14/2007 15:00,las vegas,nv,us,light,600,10 minutes,star-like light in the daytime sky over las vegas.,11/28/2007,36.1750000,-115.1363889
10/14/2008 17:00,vallejo,ca,us,sphere,12,10-12 seconds,sunning in backyard  small round object  gray and transluscent  incredible speed  10 to 12 seconds.,10/31/2008,38.1041667,-122.2555556
10/14/2009 21:37,new york city,ny,us,oval,1080,18 minutes,unknown object over the empire state building,12/12/2009,40.7141667,-74.0063889
10/14/2011 01:30,oldsmar,fl,us,triangle,1500,25 mins.,strange aircraft appearing  flying and hoovering in the sky then zipping away in a flash at great speeds..,10/19/2011,28.0338889,-82.6652778
10/14/2011 18:30,strawberry,az,us,flash,1.5,1.5 seconds,white flash appears in geosynchronous orbit lasting for 1.5 seconds.,12/12/2011,34.4077778,-111.4927778
10/14/2012 12:50,centralia,wa,us,egg,900,15 minutes,photo of an orange  egg shaped light  moving in a constant deliberate manner on a south to north course near centralia  washington.,10/30/2012,46.7163889,-122.9530556
10/14/2012 22:00,lake wales,fl,us,changing,2100,35 minutes,red whie and blue flashing lights,10/30/2012,27.9011111,-81.5861111
10/14/2013 19:00,seaside,or,us,light,900,15 minutes,bright white light in the dusk sky over ocean.,10/23/2013,45.9933333,-123.9213889
10/15/1949 20:00,baltimore,md,us,cigar,180,2-3 minutes,it was around 8:pm and i was walking home it was a full moon but something made me lookup  there was no noise  but an object came in fr,3/4/2008,39.2902778,-76.6125000
10/15/1962 22:30,chicago,il,us,other,10,10sec,sitting in avalon park on a fall night at app.1030 pm i saw a metalic object traveling from e to w i didnt give it much thought but it,8/5/2001,41.8500000,-87.6500000
10/15/1967 21:00,north hollywood,ca,us,fireball,900,15+ minutes,a fireball over the san fernando valley in 1967,12/19/2003,34.1722222,-118.3780556
10/15/1970 10:00,westland,mi,us,unknown,20,20 seconds,early 1970 s  object going around the sun.,8/16/2002,42.3241667,-83.4002778
10/15/1973 20:00,millington,tn,us,disk,1800,20-30 minutes,3 saucer shaped ufo s over naval air station.  f-4 phantom scrambled.,11/11/2013,35.3413889,-89.8972222
10/15/1975 18:00,williston,nd,us,disk,300,5 minutes,missing time,12/16/2005,48.1333333,-103.6333333
10/15/1978 02:30,des plaines,il,us,disk,30,30 sec,sighting in illinois,10/20/2005,42.0333333,-87.8833333
10/15/1980 20:00,boonville,ca,us,sphere,300,5 minutes,digital rendering of sighting linked to 10/1980  boonville  ca. 10/1980: just after dark  two orange glowing spheres  200 feet from gro,9/2/2005,39.0091667,-123.3650000
10/15/1982 21:00,omaha,ne,us,disk,120,2 minutes?,the saucer was flying high  with no sound and several lights. it passed overhead.,12/2/2000,41.2586111,-95.9375000
10/15/1985 20:00,hartford city,in,us,triangle,600,10 minutes,triangle crafts over blackford co.,10/28/2002,40.4511111,-85.3700000
10/15/1987 20:00,bolingbrook,il,us,triangle,300,5 minutes,thin black triangle  moving slowly over field in suburban chicago.,10/8/2007,41.6986111,-88.0683333
10/15/1988 20:00,pilot knob,mo,us,cigar,900,about 15 minutes,i did not actually see this myself  but my mother did. i was 10 years old in 1988 and i remember my mom running in the house saying she,12/16/2005,37.6211111,-90.6402778
10/15/1990 00:15,endwell,ny,us,formation,1200,15-20 minutes,triangle-shaped formation of 5-6 bright white circular objects that flew slowly from north to south with steady light and no noise,9/12/1999,42.1127778,-76.0213889
10/15/1993 00:00,butte,mt,us,sphere,30,30 secs,a hovering object in the vicinity of  the lady of the mountains .,10/31/2003,46.0038889,-112.5338889
10/15/1994 21:00,angola,in,us,disk,180,2 to 3 minutes,designed like a spare tire  dark back lit port blueish  had been hiding in a forest .,3/31/2008,41.6347222,-84.9994444
10/15/1995 22:15,woodstock,ct,us,,5,5 seconds,young couple witness large glowing craft streak across the night sky  as if it were  exiting  the earth. craft was followed by a trail,2/22/2002,41.9483333,-71.9744444
10/15/1997 10:00,dallas,tx,us,light,300,5 minutes,my friend and i were driving home from a date  i opened the sunroof to view the moon lite sky.  as i was starring at the stars  somethi,6/2/1998,32.7833333,-96.8000000
10/15/1997 22:00,freeport,il,us,flash,15,15 seconds,two different reports of blinking light seen by same witness within a years time.,12/9/2000,42.2966667,-89.6211111
10/15/1998 21:00,enterprise,al,us,triangle,900,15 minutes,large black triangular ship seen near enterprise  alabama.,2/1/2007,31.3150000,-85.8552778
10/15/1999 04:30,millersburg,mo,us,triangle,180,2-3 minutes,i ve already submitted a report  i had the wrong date!,12/16/1999,38.8986111,-92.1233333
10/15/1999 20:15,montreal (canada),pq,ca,,900,15 min,ufo s sighted over montreal  quebec  november  1999.,5/14/2002,45.5,-73.583333
10/15/2000 01:35,southgate,mi,us,fireball,8,8 seconds,green-blue fireball  appears over detroit metro area,12/2/2000,42.2138889,-83.1938889
10/15/2000 21:10,middletown,ca,us,cigar,60,1 minute,i am an engineer and was startled since i have never seen anything like this before. while driving home from shopping  i saw an bright,1/3/2001,38.7525000,-122.6138889
10/15/2001 15:00,chico,ca,us,other,30,30 sec.,unidentified flying man,8/16/2002,39.7286111,-121.8363889
10/15/2001 20:45,north bend,wa,us,fireball,3,3 seconds,falling fire ball seen in north bend area of washinton state.,11/20/2001,47.4958333,-121.7855556
10/15/2002 07:30,seattle,wa,us,rectangle,120,2 minutes,dark rectangle  almost a cube; no lights  no sound  no wings  no reflective surface  seen in daylight,11/4/2002,47.6063889,-122.3308333
10/15/2003 04:00,flagstaff,az,us,oval,900,15 min,i was traveling at this time in my life and called a vw  van home...camping out was what i did to save money on rent  flagstaff  arizon,4/14/2009,35.1980556,-111.6505556
10/15/2003 19:15,elizabeth,pa,us,disk,300,5 minutes,saucer shape seen from bottom with triangular lights with point in center  grey in shape.300  up.,10/31/2003,40.2691667,-79.8900000
10/15/2003 23:30,delaware,oh,us,light,3,2-3 seconds,flashing large lights like intense headlights on the bedroom wall over my bed at night!,12/9/2003,40.2986111,-83.0680556
10/15/2004 14:00,trenton,nj,us,changing,900,15 minutes,it was an overcast day. i and 3 other members of my family were on the front porch.  i noticed a long white object in the sky at 2:00.,2/1/2007,40.2169444,-74.7433333
10/15/2005 01:30,la crosse,wi,us,formation,5,5 sec,5 lights in v formation  racing across night sky before abruptly disappearing,11/3/2005,43.8013889,-91.2394444
10/15/2005 20:00,hiwassee,va,us,changing,600,20:00-20:10,hello   i saw a light above a wooded area near my house white light no noise i watched it  turn from one light into two then back to on,10/20/2005,36.9686111,-80.7138889
10/15/2005 23:40,thunder bay (canada),on,ca,disk,120,2 minutes,cloudly except for a circle around the near full moon  which was illuminated in blues and greens  then a saucer appeared,10/20/2005,48.4,-89.233333
10/15/2006 22:00,thompson (canada),mb,ca,,432000,5 days,orions belt    *nebula (faint) out in                      .<                      *    *    * unknown   cluster  .< . < *          *,2/1/2007,55.75,-97.866667
10/15/2007 21:00,mission,sd,us,light,600,10 minutes,the night sky was clear and the stars were shining bright  when we saw this bright orange light.,3/4/2008,43.3058333,-100.6577778
10/15/2008 18:30,loretto,tn,us,oval,15,15 seconds,craft seen coming through clouds at 45-dgree angle and then jetting off at another 45-degree angle.,10/31/2008,35.0777778,-87.4397222
10/15/2009 18:00,ozark,al,us,other,30,30 seconds,a large  chef s hat  shaped object in sky over us231 south.,11/21/2010,31.4588889,-85.6405556
10/15/2010 03:30,buffalo,ny,us,sphere,5400,1.5 hrs,bright white object with blue  red  green and white lights close to buffalo international airport... 1.5 hrs,11/21/2010,42.8863889,-78.8786111
10/15/2011 02:00,largo,md,us,circle,7200,2 hours,this was some time ago but one night back in october i was in bed and had my window up and i was lay down and look to my  right out my,8/5/2012,38.8975000,-76.8305556
10/15/2011 20:29,douglas,ga,us,chevron,40,30-40 sec.,30-40 individual amber lights in changing chevron formation.,10/19/2011,31.5086111,-82.8500000
10/15/2012 02:30,bonney lake,wa,us,unknown,5400,90 minutes,repetative movements of light for 90 minutes,10/30/2012,47.1772222,-122.1852778
10/15/2013 09:15,hunlock creek,pa,us,triangle,600,10 minutes,i went outside for a cigarette  i was about a quarter of my cigarette gone and i notice a light from the left of me. i have a lake in t,3/18/2014,41.2058333,-76.0663889
10/15/2013 21:45,blaine,wa,us,disk,300,~5:00 minutes,bright yellow object that cast light on cloud cover above it and was a disk or saucer shape.,10/23/2013,48.9938889,-122.7458333
10/16/1997 01:30,jacksonville,fl,us,sphere,600,10 minutes,metallic sphere scans my entire body,8/5/2001,30.3319444,-81.6558333
10/16/1999 22:00,danville,ky,us,light,7200,2 hours,blue lights  white lights  and red lights.  moving sporadically and toward each other.  then they would hover.  one actually flew over,11/17/1999,37.6455556,-84.7722222
10/16/2001 22:45,haworth,ok,us,changing,120,one hour,multiple crafts as they were orchestraiting something,11/20/2001,33.8463889,-94.6525000
10/16/2002 23:06,austin,tx,us,other,1.5,1.5 seconds,looked like a bright green shooting star  much larger  longer tail and brighter than a ss  headed in dowward direction.,10/28/2002,30.2669444,-97.7427778
10/16/2004 03:30,savannah,ga,us,light,30,about 30 seconds,red blinking light appears three times  changing speed and direction many times before fading away.,10/27/2004,32.0833333,-81.1000000
10/16/2005 17:39,rosthern (canada),sk,ca,cylinder,120,2 minutes,oct/ 16 sun 2005; me and my daughter and while on the way home from a convience store saw a silver sparkle in the sky; it was a clear e,10/20/2005,52.65,-106.333333
10/16/2006 21:05,groveland,fl,us,oval,1860,31 minutes,we were traveling west on fl state road 50 at about 60mph through lake county florida on sunday  october 15th 2006. we had just passed,10/30/2006,28.5577778,-81.8513889
10/16/2008 00:55,woodland,ca,us,light,150,2.5 min,strange pulsating red light vanishes without a trace,10/31/2008,38.6786111,-121.7722222
10/16/2009 13:00,garden grove,ca,us,triangle,120,a few minutes,triangle shape  broken into three discoid or round objects  shinny like polished stainless,12/12/2009,33.7738889,-117.9405556
10/16/2010 18:00,greeley,co,us,sphere,600,10min,round metal ball haning north west of greeley,11/21/2010,40.4233333,-104.7086111
10/16/2011 19:00,saugus,ma,us,diamond,300,5 minutes,4 sightings in 2 weeks,10/19/2011,42.4647222,-71.0105556
10/16/2012 02:00,cedar rapids,ia,us,triangle,1800,30 minutes,an object in the sky moved gradually  hovering at times  flashing red  blue and white lights  for 30 + minutes  2 nights in a row.,10/30/2012,42.0083333,-91.6438889
10/16/2012 19:00,boston,ma,us,light,300,3-5 minutes,i was outside in the parking lot in jamaicaplain neibourhood.it was 7:05pm and it was dark.accidentally i saw in the sky and the sky wa,10/30/2012,42.3583333,-71.0602778
10/16/2013 18:50,carlisle,pa,us,cigar,420,7 minutes,straight pink light traveling across sky.,10/23/2013,40.2013889,-77.1891667
10/17/1965 19:15,la jolla,ca,us,disk,5,4-5 seconds,(quoting from a report made separatly by each of us less than 1 hour from the happening)  my wife and i saw 4 ufo s flying in half wing,4/16/2005,32.8472222,-117.2733333
10/17/1994 21:30,berkshire,ny,us,triangle,600,5-10 minutes,v shaped light formation traveling in a south-west to north-east between binghamton and ithaca  ny,11/4/2002,42.3041667,-76.1869444
10/17/1999 04:00,moab,ut,us,fireball,5,:05,i saw it through the ceiling of my tent.  it was brighter than anything in the sky.  it was probably a large meteor or fireball as it i,11/2/1999,38.5733333,-109.5491667
10/17/2001 15:10,denver,co,us,sphere,1200,20 minutes,bright sphere in sky  completely stationary  then disappeared,1/11/2002,39.7391667,-104.9841667
10/17/2003 17:00,payson,az,us,oval,600,about 10 min,am not sure of the day. we were traveling by car from tonto basin.  wesaw a brilliant  golden star  ne of payson.  there was no other s,4/27/2004,34.2308333,-111.3244444
10/17/2004 08:05,fairfax,ca,us,changing,900,15 mins,i had reported this last year already  but wasnt clear. i had seen 4 or 5 black stationary dots. to the west  at a low altitude. sudden,9/15/2005,37.9872222,-122.5877778
10/17/2005 18:00,yukon,ok,us,changing,2700,45 minutes,45 mintues stalled aircraft that were being followed by us airplanes changed shapes,11/3/2005,35.5066667,-97.7622222
10/17/2006 22:02,talent,or,us,light,5,5 second,green and white falling object  near ashland  or,10/30/2006,42.2458333,-122.7875000
10/17/2008 17:47,santa ana,ca,us,disk,900,15minutes,2 ufos sighted flying together over santa ana  california and photographed.,10/31/2008,33.7455556,-117.8669444
10/17/2009 01:45,los angeles,ca,us,other,420,5-7 mins,estimated-time: 01:45am  estimated-date: october 17  2009  length: 7-10ft  width: 2-3ft  color: faded bluish florescent   altitude: 40-,6/23/2010,34.0522222,-118.2427778
10/17/2009 21:30,maple lake,mn,us,fireball,0.5,1/2 second,green fireball north of maple lake  minnesota,12/12/2009,45.2291667,-94.0016667
10/17/2011 16:00,cocoa beach,fl,us,sphere,1200,20 minutes,dimed size sphere object seen offshore near cocoa beach,10/25/2011,28.3197222,-80.6077778
10/17/2011 21:30,center moriches,ny,us,triangle,300,5min,large black triangle with pulsating  flashing white and red lights over north center moriches,10/25/2011,40.8002778,-72.7902778
10/17/2012 19:00,machias,me,us,light,240,3-4 minutes,observed solid light heading toward the south west.  steady  non blinking  traveling in a straight line.  observed a very quick flash f,11/19/2012,44.7150000,-67.4619444
10/17/2013 08:17,palm harbor,fl,us,unknown,2700,~45 minutes,strange starlike object seen in southwestern florida sky  with dim object directly beneath.,10/23/2013,28.0777778,-82.7638889
10/17/2013 00:00,chilliwack (canada),bc,ca,changing,120,2 minutes,new information in order to make sense of sightings.,10/23/2013,49.166667,-121.95
10/18/1996 23:30,memphis,tn,us,unknown,300,5 minutes,i was spending the night at a friends house when we went outside to check on his dog and my we saw something in the sky.they were a,3/7/1998,35.1494444,-90.0488889
10/18/1999 23:38,atlanta (south side of  forest park),ga,us,other,5,5 seconds,i m a truck driver  was backing into american can  window down  looked up and saw a crescent shaped object  color of moon  1/3 size spe,9/28/2002,33.7488889,-84.3880556
10/18/2002 05:30,kotzebue,ak,us,disk,10,10 sec,saucer shaped aircraft taking off. unbelievable acceleration. a bluish neon round light (glow) underneath the aircraft.,6/12/2008,66.8983333,-162.5966667
10/18/2003 15:45,watersmeet,mi,us,cigar,120,1-2mins,daylight cigar shaped craft,10/31/2003,46.2677778,-89.1777778
10/18/2003 21:00,schenectady,ny,us,light,3600,1 our,cloud dwelling lights in the sky,1/17/2004,42.8141667,-73.9400000
10/18/2004 17:45,ada,ok,us,triangle,180,3 min,traingular craft hovered over the tree line in the ada  ok area,10/27/2004,34.7744444,-96.6780556
10/18/2005 23:00,orlando,fl,us,other,10,10 seconds,i was standing out side and saw  what i thought was going to be a shooting star  but it went way to far. horizon to horizon  there was,11/3/2005,28.5380556,-81.3794444
10/18/2007 21:45,myrtle beach,sc,us,light,420,5 -7 minutes,bright lights over the ocean in myrtle beach  sc... 3 of them forming a diagonal line.,11/28/2007,33.6888889,-78.8869444
10/18/2008 23:00,culpeper,va,us,formation,1800,30 minutes,the virginia lights.  large formation of lights seen in virginia,10/31/2008,38.4730556,-77.9969444
10/18/2011 00:00,katy,tx,us,disk,10800,3 hr,nightly sightings of bright light and two saucers over katy texas,10/25/2011,29.7855556,-95.8241667
10/18/2011 20:35,glendale,az,us,triangle,15,15sec,whoosh sound doppler the sound of plane propeller  prompted turn to north  object uncloaked  traveled east cloaked to dissapear,10/25/2011,33.5386111,-112.1852778
10/18/2012 20:50,bay village,oh,us,sphere,600,10 minutes,while taking an evening walk  i noticed a pair of two orange objects flying nnw in the sky below the cloud cover.,10/30/2012,41.4847222,-81.9222222
10/18/2013 19:15,milton,vt,us,light,900,15 minutes,cluster of red lights over lake arrowhead in milton  vt.,10/23/2013,44.6397222,-73.1108333
10/18/2013 21:40,sarasota,fl,us,light,900,2-15 minutes,viewed 5 orange colored lights in sky slightly larger than stars  they were gone 15 minutes later.,10/23/2013,27.3361111,-82.5308333
10/19/1995 19:15,beaverton,or,us,,45,45 sec.,man s dog suddenly starts acting very bizarrely  threatens to bite him.  he takes dog outside  witnesses bizarre light hover  leave.,11/2/1999,45.4872222,-122.8025000
10/19/1998 22:30,antwerp,oh,us,triangle,600,10 minutes,large triangular ufo over antwerp,3/4/2008,41.1813889,-84.7405556
10/19/2000 07:40,salt lake city,ut,us,sphere,180,2-3 minutes,round and metallic about 1/4 to 1/3 third the size of the planes they were were follwoing.,12/2/2000,40.7608333,-111.8902778
10/19/2002 17:50,calgary (canada),ab,ca,egg,600,10 mins,strange object spotted over the city of calgary,10/28/2002,51.083333,-114.083333
10/19/2003 23:30,vancouver (canada),bc,ca,light,3,3 seconds,hbccufo canadian report:  red light falling vertically.,10/31/2003,49.25,-123.133333
10/19/2006 11:50,london (uk/england),,gb,light,180,3 minutes,19/10/06 - wood green  london  united kingdom - brilliant white pulsating object in the clouds,10/30/2006,51.514125,-.093689
10/19/2007 19:30,southlake,tx,us,fireball,300,5 minues,we live near dfw and are familiar with aircraft lights at night... these were not commercial or private planes.,1/21/2008,32.9411111,-97.1338889
10/19/2008 11:00,gainesville,va,us,cigar,180,3 minutes,matellic object seen in gainsville virginia,1/10/2009,38.7955556,-77.6141667
10/19/2008 23:09,laurel,ms,us,light,432000,5 days,lights captured on wild game camera.,1/10/2009,31.6938889,-89.1305556
10/19/2010 19:00,tacoma,wa,us,light,10,5-10 seconds,two of three lights in what appears to be a constellation drift off and disappear in tacoma  wa,11/21/2010,47.2530556,-122.4430556
10/19/2011 18:45,las vegas,nv,us,disk,900,10-15 minutes,numerous small disks flying towards north towards sheep range  seen from the desert just north of decatur.  event lasted 12 minutes.,10/25/2011,36.1750000,-115.1363889
10/19/2012 18:00,severn,md,us,other,300,3-5 minutes,three random chunks of car-sized  brown mold  motionless in a clear blue sky near bwi.  ((nuforc note:  usaf acad. grad.  pd)),10/30/2012,39.1369444,-76.6986111
10/19/2012 23:59,faison,nc,us,oval,2,~2 seconds,faison nc  a bright oval object flashed above 3 friends and i  lit he whole area up.,10/30/2012,35.1161111,-78.1363889
10/19/2013 19:05,lowell,ma,us,light,120,several minutes,single bright light in west sky above lowell looped  dived   soared amd hovered  fading thwn shining,10/23/2013,42.6333333,-71.3166667
10/19/2013 21:11,poolesville,md,us,sphere,3600,1+ hours,2 large spheres of light moving quickly  followed by 4 silent orange lights in l formation an hour later.,10/23/2013,39.1458333,-77.4172222
10/19/2013 23:00,albuquerque,nm,us,light,900,15 minutes,a flickering clump of lights  alternating green  red  white  and occasionally blue.. due east  high above sandia mtns.  stationary.,10/23/2013,35.0844444,-106.6505556
10/20/1974 07:00,san jose,ca,us,fireball,300,5 minutes,the santa clara valley is bordered on the east by the hamilton mountain range  and on the west by santa cruz mountain range.  at the so,4/2/1999,37.3394444,-121.8938889
10/20/1985 19:00,moorestown,nj,us,oval,600,5-10 minutes,it was a very large oval shaped object/saucer shaped object making no noise and multiple lights  some on and some off.,6/18/2003,39.9669444,-74.9430556
10/20/1995 22:00,clayton,ga,us,oval,1200,15 to 20 minutes,bright oval white light/moves at an incrediable speed zigzaging between trees(forest like)/followed us about 15 to 20 minutes.,6/12/2008,34.8780556,-83.4011111
10/20/1998 18:00,moorpark,ca,us,oval,600,10min.,oval shaped metallic rotating object with blinking lights. at first sighting it was rotating above a house then zoomed in closer to me.,11/1/1998,34.2855556,-118.8811111
10/20/1999 22:30,montesano,wa,us,fireball,10,5 - 10 sec,streaking fireball appeared and then disappeared and then reppeared. low angle of trajectory and very bright.,11/2/1999,46.9813889,-123.6013889
10/20/2000 21:00,kenosha,wi,us,light,18000,5hours,stars that move erradically and make trails like meteors.,12/2/2000,42.5847222,-87.8211111
10/20/2002 23:30,toronto (canada),on,ca,light,2,seconds,white light shots across sky.,10/28/2002,43.666667,-79.416667
10/20/2003 20:45,beckley,wv,us,rectangle,5,3-5 seconds,i was driving down s. kanawha st about 8:45. my friend and i suddenly saw a huge glowing flourescent green flash shooting down from the,10/31/2003,37.7780556,-81.1883333
10/20/2003 21:50,cullowhee,nc,us,fireball,3,2 or 3 seconds,my wife and i saw a huge glowing blue ball enter the atmophere.,10/31/2003,35.3136111,-83.1766667
10/20/2004 21:30,denver,co,us,triangle,10,8 - 10 seconds,triangle with lights  no sound  heading south-west.,10/27/2004,39.7391667,-104.9841667
10/20/2005 19:00,surprise,az,us,light,7200,2 hrs.,followed 6 lights in a circle shape,11/3/2005,33.6305556,-112.3325000
10/20/2006 03:45,foster city,ca,us,light,30,30 seconds,four people witnessed a plasma ball hover right in front of them as it changed colors and then it moved off.,12/12/2011,37.5586111,-122.2700000
10/20/2007 02:30,peoria,il,us,chevron,10,10 seconds,dark object moving papidly to the east,11/28/2007,40.6936111,-89.5888889
10/20/2007 21:55,pittsfield,il,us,triangle,120,1 to 2 minutes,triangle shaped craft spotted about 75ft. off the ground made no noise as it hovered.  had white  red  and green lights.,11/28/2007,39.6077778,-90.8050000
10/20/2008 19:30,reedville,va,us,circle,600,half hour,round  yellowish white light   with flashing red light  that hovered in the western sky.,1/10/2009,37.8419444,-76.2761111
10/20/2009 21:00,fayetteville,ga,us,light,10,10 seconds,huge blue/green orb over fayetteville ga  decended straight down,12/12/2009,33.4486111,-84.4550000
10/20/2010 19:33,williamsport,pa,us,light,5,5 seconds,2 craft in formation,11/21/2010,41.2411111,-77.0013889
10/20/2011 15:00,mays landing,nj,us,other,20,20 seconds,house shaking and pictures moving along with audible rumbling.  according to the news  usgs reports no seismic activity.,10/25/2011,39.4522222,-74.7280556
10/20/2011 22:40,williams lake (canada),bc,ca,triangle,1800,30 min,we just arrived home about 1 hour ago and im still shaking me and my wife and my 1 year old were returning from a trip and we noticed t,10/25/2011,52.116667,-122.15
10/20/2012 19:00,severn,md,us,circle,300,5 minutes,12 red lights flying,10/30/2012,39.1369444,-76.6986111
10/20/2012 22:20,south jordan,ut,us,circle,120,2 minutes,unexplaned huge red/orange ball over sandy  ut traveling horizontally and suddenly dropping out of sight.,10/30/2012,40.5622222,-111.9288889
10/20/2013 18:57,spokane,wa,us,flash,30,30 seconds,two small  intense  blinking lights circled above spokane valley  wa.  ((nuforc note:  advertising lights??  pd)),10/23/2013,47.6588889,-117.4250000
10/21/1976 21:00,st. george (ut) to las vegas (nv),ut,us,light,1800,30 minutes,a bright red light in the southwestern sky approx. 45 degrees above the horizon.,2/16/1999,37.1041667,-113.5833333
10/21/1999 11:55,kansas city,mo,us,cylinder,1200,20 minutes,i and four other people watched a very large cylinder slowly move across the noon sky and enter a long  narrow cloud through one end  n,11/9/1999,39.0997222,-94.5783333
10/21/2001 06:30,murfreesboro,tn,us,oval,1800,30 minutes,an oval shaped object with brillant multi colored lights in the north sky not moving.was very hard to distinguish with my eyes but it w,11/20/2001,35.8455556,-86.3902778
10/21/2003 02:45,vacaville,ca,us,rectangle,120,2 minutes,2:25 am while satelite watching noticed an object moving sw to ne with binacs saw 3 objects or triangle formation now going w-east,10/31/2003,38.3566667,-121.9866667
10/21/2003 22:20,cocoa,fl,us,fireball,4,3 to 4 seconds,a green ball of light in the north west sky moving in an arc shape as if it was falling  then it dissapeared.,1/17/2004,28.3858333,-80.7422222
10/21/2006 03:00,anahola,hi,us,disk,10800,3 hours,8 year old daughter and friend experience sighting and interaction with ufo in hawaii.,10/30/2006,22.1452778,-159.3155556
10/21/2007 03:20,hereford (uk/england),,gb,disk,900,15 minutes,moving lights spotted above hereford in england,11/28/2007,52.05,-2.716667
10/21/2008 08:00,brookings,or,us,sphere,900,15 miniutes,multi-colored ligth,10/31/2008,42.0527778,-124.2827778
10/21/2009 19:35,henderson,nv,us,unknown,10,10 sec,bright white light in s.w. sky over henderson  nv. oval in shape,12/12/2009,36.0397222,-114.9811111
10/21/2011 07:35,granton,wi,us,light,180,3 min,two different lights pass over granton  wi  meeting and passing very close with jet following?,10/25/2011,44.5888889,-90.4611111
10/21/2011 20:00,east orange,nj,us,formation,7200,2 hours,4 lights in the sky that swirled around our heads making a square/ diamond shape and that followed us about 9 blocks home,10/25/2011,40.7672222,-74.2052778
10/21/2012 00:05,morris,il,us,formation,300,4-5 minutes,unexplained  formation  of red lights that slowly disappeared.,10/30/2012,41.3572222,-88.4211111
10/21/2012 14:40,lawrenceville,ga,us,changing,1200,20 minutes,reflective object over lawrenceville ga. 10/21/12,10/30/2012,33.9561111,-83.9880556
10/21/2013 00:30,cottonwood,az,us,light,420,7 minutes,red  white blue flashing lights,10/23/2013,34.7391667,-112.0091667
10/21/2013 21:35,oxford,pa,us,oval,30,30 seconds,red/orange oval object fell diagonally from the sky and disappeared.  left behind a trail of smoke.,10/23/2013,39.7852778,-75.9791667
10/2/1998 09:20,sedona,az,us,fireball,300,5 minutes,object like a white fireball  with a short tail  hovering,11/1/1998,34.8697222,-111.7602778
10/2/2000 17:00,crossville,tn,us,circle,8,two hours,more pulsing red lights in the night sky,12/2/2000,35.9488889,-85.0269444
10/2/2003 19:15,smithers (canada),bc,ca,unknown,120,2 minutes,hbccufo canadian report:  a huge orange ball with a very short tail,10/7/2003,54.766667,-127.166667
10/2/2004 18:20,west covina,ca,us,unknown,600,10 minutes,white  caterpillar contrails over los angeles county,10/27/2004,34.0900000,-117.8894444
10/2/2005 15:00,toronto (canada),on,ca,egg,120,2 minutes,it zigzaged  around and went very fast. it had lights that were not flashing,10/11/2005,43.666667,-79.416667
10/2/2006 20:02,joplin,mo,us,light,420,7 min,two bright lights turn into 20 to 30 planes!,10/30/2006,37.0841667,-94.5130556
10/2/2007 23:00,colorado springs,co,us,triangle,1200,20 mins.,the second object appreared suddenly  then flickered out as the first object returned the way it had come.,10/8/2007,38.8338889,-104.8208333
10/2/2009 10:30,jacksonville,fl,us,light,120,couple of minutes,object moving above cloud line in jacksonville  fl oct 2  2009 at 10:30 am,12/12/2009,30.3319444,-81.6558333
10/2/2010 16:00,pleasanton,ca,us,oval,1800,approx. 30 min.,two crafts  shaped like sheres/ovals  appeared thirty seconds apart from each other and the second one circled around the first twice,11/21/2010,37.6625000,-121.8736111
10/2/2011 21:00,new york mills,mn,us,light,60,1 minute,one satellite chasing another,10/10/2011,46.5180556,-95.3758333
10/2/2012 19:50,maple valley,wa,us,chevron,120,2 minutes,two chevron-shaped objects flying in formation spotted over maple valley  wa.,10/30/2012,47.4066667,-122.0375000
10/2/2013 14:15,las vegas,nv,us,cigar,600,10 minutes,high flying object  trails in front and back  elongated  bright shape in the middle.,10/14/2013,36.1750000,-115.1363889
10/2/2013 22:00,waretown,nj,us,rectangle,900,15 minutes,three lights moving very slowly then turned north revealing 2 add l red lights. hovered for several minutes.,10/3/2013,39.7913889,-74.1955556
10/22/1995 02:30,bessemer,al,us,,900,15 min.,man  wife  2 children   driving down long hill  see bizarre cluster of lights   like christmas tree in the sky.   multiple witnesses.,11/2/1999,33.4016667,-86.9544444
10/22/2000 04:30,oshkosh,wi,us,,900,15 minutes,flashing lights around planet or star.,12/2/2000,44.0247222,-88.5425000
10/22/2002 14:00,mitchell (australia),,au,cylinder,10,10 sec,objects unexplained seen in the air over rural queensland small country town of mitchell,10/31/2008,-26.4849,147.974197
10/22/2003 20:00,dover,ar,us,unknown,18000,5 hrs,to whom this may concern and please take seriously  we could not contact or find a no. to call.while looking at the northen star on 10/,10/31/2003,35.4013889,-93.1141667
10/22/2004 17:45,port murray,nj,us,sphere,10,10 seconds,4 spheres appeared and houvered  lines up and moved quicker then lightening.,10/27/2004,40.7855556,-74.9163889
10/22/2005 20:08,nelsonville,oh,us,triangle,20,20 sec,bright light sailing in sky.,11/3/2005,39.4586111,-82.2319444
10/22/2006 22:30,georgetown,tx,us,oval,10,7-10 seconds,two very bright oval objects at apparent high rate of speed  suddenly disappear,10/30/2006,30.6325000,-97.6769444
10/22/2008 00:45,columbus,oh,us,changing,300,3-5 min,white-blue lights over columbus  ohio,10/31/2008,39.9611111,-82.9988889
10/22/2008 22:42,columbus,oh,us,sphere,5,5 secinds,bright white sphere at i-270 and 23 on the south end travelling at an incredible rate of speed,10/31/2008,39.9611111,-82.9988889
10/22/2010 18:47,perrysburg,oh,us,light,30,30 seconds,ufo spotted following planes.,11/21/2010,41.5569444,-83.6272222
10/22/2011 09:20,los angeles,ca,us,sphere,600,10 min,six craft  shiny metal  9:20 am took photo but don t have developed,10/25/2011,34.0522222,-118.2427778
10/22/2011 19:50,evergreen park,il,us,light,240,4min,light-filled balloon-like objects [15-25]in the eastern sky drifted northward for about 3min. stopped for 1min  then disappeared.,10/25/2011,41.7205556,-87.7016667
10/22/2012 00:05,cincinnati,oh,us,circle,120,2 minutes,large colorful rapidly flashing ball of light in eastern cincinnati  oh.,10/30/2012,39.1619444,-84.4569444
10/22/2012 18:30,charlottesville,va,us,circle,900,15 minutes,3 amber orbs forming a triangle then a straight line then disappearing.,10/30/2012,38.0291667,-78.4769444
10/22/2013 18:30,prescott valley,az,us,other,73800,2 1/2 hours,3 then up to 6 white flashing lights move erratically all over-n. prescott valley  az 10/22&10/23/13 pm,11/11/2013,34.6100000,-112.3150000
10/22/2013 21:00,auburn,ca,us,unknown,60,<1 minute,lighted object flying fast and low overhead with no sound.,10/23/2013,38.8966667,-121.0758333
10/23/1997 21:00,orlando,fl,us,other,600,approx. 10 minutes,rounded rectangle of a cluster of frosted raspberry lights slowly moving north  then  swiftly gone...,4/8/2002,28.5380556,-81.3794444
10/23/1999 21:00,hayward,ca,us,cylinder,30,30 seconds,rectangular gray object glided silently across the night sky and disappeared behind a cloud,11/2/1999,37.6688889,-122.0797222
10/23/2000 22:00,seattle (ballard neighborhood),wa,us,egg,3,2-3 seconds,anybody else see another green light in seattle?,12/2/2000,47.6063889,-122.3308333
10/23/2003 21:40,seattle,wa,us,circle,10,10 seconds,a bright white circular object moving quickly from north to south.,10/31/2003,47.6063889,-122.3308333
10/23/2005 00:30,fort worth,tx,us,light,120,2 min,three lights  two red  one white  on erratic flight paths,11/3/2005,32.7252778,-97.3205556
10/23/2006 21:00,anchorage,ak,us,circle,7200,2 hours +,multiple craft sighted above a anchorage  ak,10/30/2006,61.2180556,-149.9002778
10/23/2007 11:39,merritt island,fl,us,light,20,15-20 seconds,some thing go from west to east durning the shuttle launch.,11/28/2007,28.5388889,-80.6722222
10/23/2008 19:00,richmond,ky,us,unknown,3600,1 hour,two very bright bluish lights moving very slowly and oddly.  ((nuforc note:  possible star?  or hoax.  pd)),10/31/2008,37.7477778,-84.2947222
10/23/2008 22:00,morehead,ky,us,circle,5,5 seconds,student sees ufo fly by 11th floor window in dorm.,1/10/2009,38.1838889,-83.4327778
10/23/2010 19:40,phoenix,az,us,fireball,120,2 mins,2 strange craft spotted over phoenix  arizona,11/21/2010,33.4483333,-112.0733333
10/23/2011 02:00,hammond,in,us,egg,300,3 to 5 mins,i was sitting outside on the side of my house smoking and looked up and seen what i thought too be a balloon but it was moving too fast,10/25/2011,41.5833333,-87.5000000
10/23/2011 17:50,honolulu,hi,us,cylinder,120,2 minutes,cylinder hovering over honolulu zoo/waikiki,10/25/2011,21.3069444,-157.8583333
10/23/2011 22:00,rachel,nv,us,formation,300,five minutes,while driving at night on 375  coming up to rachel.  my girlfriend and i noticed these 3 bright lights flying in a formation and stoppi,12/12/2011,37.6447222,-115.7427778
10/23/2012 19:30,surfside beach,sc,us,sphere,1200,20 minutes,we saw several odd shaped orange shapes in sky at three different intervals  about fifteen minutes apart. last time they were circular.,10/30/2012,33.6058333,-78.9733333
10/23/2013 05:45,milford,nh,us,triangle,300,5 minutes,bright light in the distance  got closer large hovering craft with no noise above rt. 101.,11/11/2013,42.8352778,-71.6494444
10/23/2013 19:30,stilwell,ks,us,sphere,1800,30 minutes,contact with intelligent ufo.  ((nuforc note:  possible sighting of venus??  pd)),11/11/2013,38.7691667,-94.6561111
10/23/2013 23:38,scottsdale,az,us,other,180,2-3 minutes,irregular hexagon with 3 big bright lights emitting beams,11/11/2013,33.5091667,-111.8983333
10/24/1997 06:30,blountville,tn,us,circle,180,3 minutes,brightly lit circular object (circular light pattern) hovering 1 1/2 minutes and suddenly darting away faster than conventional aircraf,1/28/1999,36.5330556,-82.3269444
10/24/1999 06:00,iowa city,ia,us,sphere,180,3 minutes,round white ball beyond treetops straight north moving ene fluctuating,11/2/1999,41.6611111,-91.5300000
10/24/2001 23:00,evanston,wy,us,oval,18000,5hours,observed a oblong green glassy object starting at 2300 hrs on 10-24-01 while driving through wyoming untill 0400 10-25-01 seemed to mis,11/20/2001,41.2683333,-110.9625000
10/24/2003 22:16,lancaster (uk/england),,gb,sphere,120,2 minutes,bright metallic spherical object chased by military aircraft.,11/26/2003,54.066667,-2.833333
10/24/2004 23:00,zanesville,oh,us,,4,4 seconds,i have a question about something that happened to me just the other night that i cant explain in the sky. ((meteor??)),11/2/2004,39.9402778,-82.0133333
10/24/2005 20:30,north miami,fl,us,light,600,10+minutes,moving stars,10/30/2006,25.8897222,-80.1869444
10/24/2007 05:30,kenosha,wi,us,unknown,5,5 seconds,they did not burn up as normal and were a much more greenish color of light then a meteor,11/28/2007,42.5847222,-87.8211111
10/24/2007 21:35,roca,ne,us,rectangle,1800,30 minutes,((hoax??))  this made me an alcoholic.  ((nuforc note:  because of the profanity in the original version  we suspect a hoax here.  pd)),11/28/2007,40.6575000,-96.6577778
10/24/2008 22:20,indianapolis,in,us,light,180,2-3 minutes,on 10/24/08 i observed 10-15 orange colored lighted objects floating or flying on the northeast side of indianapolis.,10/31/2008,39.7683333,-86.1580556
10/24/2009 20:35,crystal lake,il,us,cylinder,120,1 - 2 minutes,several hundred foot long orange/gold cylindrical object,12/12/2009,42.2411111,-88.3161111
10/24/2011 20:00,santee,sc,us,fireball,180,3:00min,only lasted about 3 minutes and was a fireball traveling hortizontally and was very bright,12/12/2011,33.4750000,-80.4866667
10/24/2012 08:45,little river,sc,us,changing,60,1 minutes,lights from a craft changing shape & formation,10/30/2012,33.8730556,-78.6144444
10/24/2012 20:30,cherry grove beach,sc,us,oval,1200,20 minutes,orange balls of light appeared in sky above the ocean and darted from left to right.,10/30/2012,33.8272222,-78.6430556
10/24/2012 22:45,glenford,oh,us,unknown,180,3 minutes,light in the sky,10/30/2012,39.8880556,-82.3172222
10/24/2013 19:10,west vancouver (canada),bc,ca,light,600,10 minutes,solid white light over vancouver bc moving due south.,11/11/2013,49.25,-123.133333
10/24/2013 21:00,broken arrow,ok,us,oval,900,15 minutes,2 orangish/red/yellow oval objects hovering over a broken arrow  ok residential district.,12/5/2013,36.0525000,-95.7905556
10/25/1969 06:00,erie,pa,us,circle,1200,20 minutes,bright circular object along lake erie,2/14/2006,42.1291667,-80.0852778
10/25/1994 01:30,san antonio,tx,us,other,20,10-20 seconds,amorphous  floating ink-spot in the night sky,10/31/2008,29.4238889,-98.4933333
10/25/1999 11:30,florence,ms,us,changing,60,1min,saw a shiney object moving from west to east and i was looking north.it had no sound.,11/2/1999,32.1533333,-90.1311111
10/25/2000 20:30,seattle,wa,us,triangle,2700,45 minutes,sparkling contrails in triangle pattern.,12/2/2000,47.6063889,-122.3308333
10/25/2003 18:24,fleetwood,pa,us,oval,15,15 seconds,an oval shaped craft flew directly behind and to the left of a low flying 747 passenger jet. the craft rflected sunlight and it was obv,8/11/2004,40.4538889,-75.8183333
10/25/2004 19:00,burlington,ma,us,disk,10,10 seconds,a saucer like object - very bright white lights.... flying slowly overhead  before being lost in the trees.,10/27/2004,42.5047222,-71.1961111
10/25/2006 19:15,fairbury,il,us,oval,10,10 seconds,2 oval shaped objects pursuing each other,10/30/2006,40.7472222,-88.5147222
10/25/2007 16:00,philadelphia,pa,us,oval,60,one minute,10/26/07..philadelphia.pa..oval..silvery..about 200  long  in the eastern sky..,11/28/2007,39.9522222,-75.1641667
10/25/2008 19:30,davis,ca,us,changing,300,5 minutes?,light  with tail doing serpentine manuever over i-80 in davis,1/10/2009,38.5450000,-121.7394444
10/25/2009 07:00,toronto (canada),on,ca,light,2,few seconds,high speed ball of light across the sky at dawn and then the light went out,12/12/2009,43.666667,-79.416667
10/25/2010 22:45,plainfield,il,us,triangle,60,1 minute,i went outside for a cigarette on my front porch. i heard a crazy sound and immediately got sort of frightended. i looked up and saw a,11/21/2010,41.6269444,-88.2038889
10/25/2011 13:10,vancouver,wa,us,cigar,60,1 minute,single white  cigar shaped object over west vanouver  wa,12/12/2011,45.6388889,-122.6602778
10/25/2011 22:20,vacaville,ca,us,triangle,120,2 minutes,((hoax??))  triangular craft with two lights on each side.,12/12/2011,38.3566667,-121.9866667
10/25/2013 00:00,butler,pa,us,light,120,2 minutes,faint blue light moving and disappearing.,12/23/2013,40.8611111,-79.8955556
10/25/2013 20:27,ellicott city,md,us,circle,120,2 minutes,((nuforc note:  witness provides no information; remains totally anonymous.  pd)),11/11/2013,39.2672222,-76.7986111
10/26/1996 02:00,newport beach,ca,us,changing,150,2.5 minutes,object defies physics in newport beach  ca.,3/27/2014,33.6188889,-117.9280556
10/26/1998 21:50,roseville,ca,us,fireball,15,15 seconds?,small red fireball with long white tail  moving west at a very high speed parallel to the ground,11/1/1998,38.7522222,-121.2869444
10/26/1999 18:00,charlotte,nc,us,light,600,5-10 min,approx. 6-8 jets in sky. @ bright shining objects like small stars standing still. as one jet moved toward them  one moved away at a mu,11/2/1999,35.2269444,-80.8433333
10/26/2000 13:48,panama city beach,fl,us,other,45,45 seconds,unusual military movements off of western shore of shell island panama city beach,12/9/2000,30.1763889,-85.8055556
10/26/2001 19:00,tulsa,ok,us,light,180,3 minutes,2 bright lights with sparkling trails moving in figure 8 pattern,11/20/2001,36.1538889,-95.9925000
10/26/2003 16:25,vernon (canada),bc,ca,other,300,5 mins,i was standing behind my car  waiting for a phone call and i looked up to the clouds and notice a white dot moving at a slow pace. i wa,11/8/2003,46.183333,-62.883333
10/26/2005 13:39,wichita,ks,us,light,15,15 sec,light near witchita  ks,11/3/2005,37.6922222,-97.3372222
10/26/2006 09:45,ardmore,pa,us,light,2,2 seconds,bright light speeds by,10/30/2006,40.0066667,-75.2858333
10/26/2007 19:00,bearskin lake (canada),on,ca,circle,10,10 sec,oct. 26  2007 19:00 hrs. bearskin lake on  circular disc with 4 lights seen 500 ft above ground heading east,11/28/2007,53.933333,-90.983333
10/26/2008 18:40,woodinville,wa,us,light,60,1 minute or so...,possible pair of satelites  but i wanted to list it here in case somebody saw more.  i walked outside and looked to the south and obser,10/31/2008,47.7544444,-122.1622222
10/26/2009 18:00,streetsboro,oh,us,triangle,120,1-2 minutes,on 10/26/2009 saw flat  triangular silver colored aircraft making loud motor noise flying low over my house very near ohio turnpike,12/12/2009,41.2391667,-81.3461111
10/26/2011 08:30,columbus,oh,us,other,600,10 minutes,dark colored object moving fast.,12/12/2011,39.9611111,-82.9988889
10/26/2012 17:35,mystic,ct,us,triangle,600,10 minutes,triangular orange lights hovering over mystic  ct.,10/30/2012,41.3541667,-71.9669444
10/26/2013 18:00,glendale,az,us,fireball,600,10 minute,fireball-like objects above asu west.,12/23/2013,33.5386111,-112.1852778
10/26/2013 21:00,beaver,ar,us,circle,30,30 seconds,orange lights moving slow.start out in straight vertical line.they scatter then disappear in the clouds. they were low and visible and,11/11/2013,36.4736111,-93.7672222
10/27/1995 21:23,siletz,or,us,,900,15 min.,woman & 3 witnesses rpt stat. obj flashing white  green  red lights.  zigzags dramatically. (reptd. 02no95 obj. not visible in sky.),11/2/1999,44.7219444,-123.9188889
10/27/2001 19:30,abbotsford (canada),bc,ca,triangle,9,5 to 9 seconds,large meteor or other object enters sky west of mission bc at approx 1930 hrs 01/10/27,11/20/2001,45.433333,-72.883333
10/27/2004 06:30,casa grande,az,us,cigar,180,3 minutes,saw a ufo at 10ꯠ feet 2 miles south of i-8 & i-10 near casa grande  arizona.,12/3/2004,32.8794444,-111.7566667
10/27/2004 22:20,tampa,fl,us,triangle,4,2-4 seconds,triangular lights observed during total lunar eclipse.,11/2/2004,27.9472222,-82.4586111
10/27/2005 20:00,jacksonville,nc,us,disk,1800,30 minutes,observed bright disc shaped object with three red pulsating lights on the bottom for about 30 minutes.,11/3/2005,34.7538889,-77.4305556
10/27/2007 20:00,tampa,fl,us,disk,600,10 mins,flashing disk shaped object at st. petersberg tampa,11/28/2007,27.9472222,-82.4586111
10/27/2008 22:45,granbury,tx,us,disk,4,fourty five seconds,one saucer in the sky  late at night.,10/31/2008,32.4419444,-97.7938889
10/27/2010 10:00,harleysville,pa,us,light,10,10 sec,i saw a red light flying through the sky at a very high speed. my first thought was it can t be a plane because it was not blinking  an,11/21/2010,40.2794444,-75.3875000
10/27/2011 01:00,kilgore,tx,us,light,120,2 minutes,it appeared as a light in the sky such as a star but then it took off very fast.,12/12/2011,32.3861111,-94.8755556
10/27/2012 11:30,harrisburg,pa,us,fireball,120,2 minutes,several (15-25)  bright  fiery looking objects moving in straight line across the sky.,10/30/2012,40.2736111,-76.8847222
10/27/2012 21:15,toledo,oh,us,sphere,2700,45 minutes,orbs in a circle and star like objects,10/30/2012,41.6638889,-83.5552778
10/27/2013 19:30,lorain,oh,us,diamond,120,2 minutes,8 crafts or whatever  proceeding w to e along lake erie shore line  red  silent  with varying speeds  but generally in formation.,11/11/2013,41.4527778,-82.1825000
10/28/1995 01:30,greenwood,ca,us,,10800,3 hrs.,man & wife see very bright obj do  loop  then see 3 more objs.  got other witnesses  saw 11 objs! seemed to  shoot at each other.,11/2/1999,38.8966667,-120.9116667
10/28/1998 23:10,sherwood,ar,us,other,1800,20-30 min,it was about 100-120 feet away.  it was about the size of a mini-van.  it was an oblong light.  it was not shining  but rather glowing.,4/26/1999,34.8150000,-92.2241667
10/28/2000 20:30,scranton,pa,us,other,180,3 mins,it appeared to be a plane hovering in one spot with inverted wings and strange bubble-shaped objects underneath its wings.,3/21/2003,41.4088889,-75.6627778
10/28/2001 04:10,montello,nv,us,unknown,60,one minute,three trucks  seven people  heading out hunting.  18 miles north of montello  nevada.   stars shining brightly.  no evidence of dawn ye,11/20/2001,41.2613889,-114.1933333
10/28/2003 01:00,pasadena,md,us,unknown,7200,2 hours,i was starting to doze off durring the david letterman show. i was awaken by a repetitive sound kinda resembling a phone of the hook bu,10/31/2003,39.1072222,-76.5713889
10/28/2004 21:33,orono,me,us,disk,15,15 seconds,the object  was about the size of a full moon  had red and white lights  then vanished.,11/2/2004,44.8830556,-68.6725000
10/28/2005 18:15,st. louis,mo,us,fireball,3600,1 hour,fireballs in st. louis,11/3/2005,38.6272222,-90.1977778
10/28/2006 17:00,san antonio,tx,us,circle,21600,afternoon,my cousin  brother and i were playing outside when we saw a circle disc object in the sky.,12/7/2006,29.4238889,-98.4933333
10/28/2007 05:00,new york city,ny,us,light,7200,2 hours,bright light appears over nyc  ((nuforc note:  sighting of venus or  twinkling star??   pd)),11/28/2007,40.7141667,-74.0063889
10/28/2008 07:30,brownwood,tx,us,light,300,5 minutes,3 circular orange lights in brownwood  texas!,10/31/2008,31.7091667,-98.9908333
10/28/2008 19:40,sidney,tx,us,light,240,4 mins.,one of many to see the ufo s on 10/28/08 in comanche  texas,10/31/2008,31.9491667,-98.7369444
10/28/2009 19:30,santa clarita county (126 freeway),ca,us,unknown,1200,20 minutes,i witness the teleportation of an alien spacecraft  as well as the soarce of this technology in action.,6/3/2010,34.3916667,-118.5416667
10/28/2010 19:50,stanton,ne,us,light,45,30-45 seconds,i saw an amzingly bright light in the night sky and then it disappeared.,11/21/2010,41.9502778,-97.2236111
10/28/2011 06:00,alma center,wi,us,light,10,10 seconds,two bright  lights in three weeks sighted,12/12/2011,44.4372222,-90.9111111
10/28/2011 20:15,machesney park,il,us,formation,30,30 seconds,bright orange lights over machesney park illinois,12/12/2011,42.3472222,-89.0388889
10/28/2012 23:07,marietta,ga,us,unknown,10,10 seconds,sky changed color in several bright flashes.,10/30/2012,33.9525000,-84.5500000
10/28/2013 22:15,mt. vernon,oh,us,triangle,120,2 minutes,orbs forming a triangle that came from the stratosphere  went strait over dropped thousands of ft. and went strait all in one motion,11/20/2013,40.3933333,-82.4858333
10/29/1995 21:40,kodak,tn,us,,60,1 minute,man & wife witness very bizarre obj. moving erratically in sky.   it looked like an airplane  but it wasn t (one.)   1 blinking light.,11/2/1999,35.9744444,-83.6269444
10/29/1999 17:45,tuscaloosa,al,us,circle,900,15 minutes,we saw a strange contrail and craft.,11/9/1999,33.2097222,-87.5691667
10/29/2000 20:00,mt vernon,wa,us,flash,90,90 seconds,bright  white  erraticly strobeing light jumping across night sky possibly followed by a second object.,12/2/2000,48.4213889,-122.3327778
10/29/2002 21:38,chandler,az,us,diamond,15,10 to 15 secs,the object appeared to be a dimmly illuminated flying wing approximately diamond shaped with squared off wing tips.,11/4/2002,33.3061111,-111.8405556
10/29/2003 22:00,new iberia,la,us,cigar,5,5 sec.,very bright object along busy highway,12/9/2003,30.0033333,-91.8186111
10/29/2005 18:51,seattle (boeing field),wa,us,other,5,5 sec.,twin-engine jet fighter seen to streak west to east over boeing field in ifr conditions.,11/3/2005,47.6063889,-122.3308333
10/29/2006 22:20,spearfish,sd,us,chevron,5,4 - 5 seconds,the object first appeared in the north sky.  my attention was drawn to what initially appeared to be a shooting star.  the first thing,12/7/2006,44.4908333,-103.8588889
10/29/2007 21:20,frankfort,ky,us,circle,1800,30 minutes+,franklin/scott county kentucky round object with red  blue  and white lights  ((nuforc note:  sighting of sirius??  pd)),11/28/2007,38.2008333,-84.8733333
10/29/2008 21:11,oberlin,oh,us,unknown,30,30 seconds,bright green light shot across sky  changed to white  then back to green  then disappeared.,10/31/2008,41.2938889,-82.2175000
10/29/2009 21:15,new vienna,oh,us,cigar,30,30 seconds,ufo new vienna ohio  5-8 lights appear goldish one after another,12/12/2009,39.3236111,-83.6911111
10/29/2010 18:00,katy,tx,us,light,120,2 minutes,katy texas ufo sighting involving fighter jets,11/21/2010,29.7855556,-95.8241667
10/29/2011 08:00,meredith,nh,us,light,1200,20 minutes,redish orange lites spinning and dancing low in sky.,12/12/2011,43.6575000,-71.5008333
10/29/2011 22:00,rockford,il,us,light,120,2 miniutes,3 red lights in rockford not planes!!!,12/12/2011,42.2711111,-89.0938889
10/29/2012 21:00,yuma,az,us,rectangle,30,30 seconds,4 rectangle solid red lights in a right banking turn. then each blinked once and went out. 4-3-2-1.,10/30/2012,32.7252778,-114.6236111
10/30/1958 01:00,riverside,il,us,light,600,10 minutes (?),chicago suburbs  strange lights and figures; close contact with figures. 500 lights on object0: yes,4/27/2007,41.8350000,-87.8227778
10/30/1989 20:00,de soto,mo,us,oval,300,5 minutes,a black  silent  blimp shaped object floated over us,1/22/2000,38.1394444,-90.5550000
10/30/1999 03:36,la jolla,ca,us,triangle,3600,1 hour,have viewed(and photographed some)numbers of craft since 09/11/99  at various ranges from approximately 100 yds to several miles.,11/9/1999,32.8472222,-117.2733333
10/30/2000 21:12,woodland,ca,us,sphere,480,7-8 minutes,it was approximately 9:12 pm in woodland   near sacramento  ca on october 30th. i was standing outside and noticed something flying slo,12/9/2000,38.6786111,-121.7722222
10/30/2002 18:20,santa barbara,ca,us,triangle,4,4 seconds,i observed three pale white lights spaced equalaterally rapidly moving in the the sky from east to west above santa barbara california,11/4/2002,34.4208333,-119.6972222
10/30/2003 21:00,findlay,oh,us,unknown,900,15 minutes,strange jet,11/26/2003,41.0441667,-83.6500000
10/30/2004 22:35,glendale,az,us,circle,480,5-8 mnutes,red cirlular object over the sky in glendale arizona  october 30  2004.,11/9/2004,33.5386111,-112.1852778
10/30/2005 19:30,porterville,ca,us,unknown,30,30 seconds,light over porterville  ca.,11/8/2005,36.0652778,-119.0158333
10/30/2006 19:10,monticello,ny,us,cross,1500,25 minutes,multiple lights seen in sullivan county,12/7/2006,41.6555556,-74.6897222
10/30/2007 19:55,fernandina beach,fl,us,light,10,less than 10 seconds,light in the sky  not moving that got extememly bright then went dim and out.,11/28/2007,30.6694444,-81.4627778
10/30/2008 18:00,el dorado hills,ca,us,triangle,300,5 minutes,large black floating buidling (box),7/14/2013,38.6858333,-121.0811111
10/30/2009 21:00,dayton,tx,us,triangle,300,5 minutes,driving down highway 146 friday night around 9:30pm my husband and i noticed a very bright object in the sky.  my husband asked if that,12/12/2009,30.0463889,-94.8850000
10/30/2010 22:23,tuttle,ok,us,triangle,1200,20 minutes,three yellow-orange lights flying over-head numerous times.,11/21/2010,35.2908333,-97.8119444
10/30/2011 18:47,london (uk/england),,gb,circle,180,3mins,huge white circular object with flashing light on base and possible red lights either side,12/12/2011,51.514125,-.093689
10/30/2012 06:15,nashville,tn,us,fireball,300,5 minutes,huge bright object the size of a house slowly traveling across sky,10/30/2012,36.1658333,-86.7844444
10/30/2013 02:30,bolton (canada),on,ca,cigar,60,1 minute,large red flashing lights flaying just above tree level.,11/11/2013,43.883333,-79.733333
10/30/2013 19:30,gulfport,ms,us,sphere,540,9 minutes,bright white light.,11/11/2013,30.3672222,-89.0927778
10/31/1973 19:30,wilson,ok,us,cigar,600,10 min,metallic cigar shaped object,1/29/2002,34.1619444,-97.4255556
10/31/1988 22:00,tryon (north of),ok,us,triangle,420,5-7 minutes,large  silent  triangular object with huge beam of orange light coming from the underside of the craft viewed by several witnesses.,5/24/2005,35.8697222,-96.9636111
10/31/1995 21:10,tacoma,wa,us,,4,4 sec.,man sitting in hot tub sees  satellite  in e sky.  obj. suddenly accelerated dramatically  made zigzag turns  departed very fast.,11/2/1999,47.2530556,-122.4430556
10/31/1998 22:24,brampton (canada),on,ca,circle,34,25-34 secs,on hallowe en 1998 my friend jessica and i seen a flying what seemed to  be an alien space craft that was there for no longer than 35 s,12/2/2000,43.683333,-79.766667
10/31/1999 23:48,turner,or,us,circle,300,5 minuets,glowing red circle  abotu 15 ft. above the ground.  shot quickly across the sky than disapeared in about 5 minuets.,11/17/1999,44.8433333,-122.9516667
10/31/2000 19:00,grand ledge,mi,us,light,30,:20 -:30 sec.,light traveling at high speed north to south-west,12/2/2000,42.7533333,-84.7463889
10/31/2001 17:30,monterey,ca,us,changing,20,20 seconds,as i was panning my iphone from the sun to the shore line i captured what appeared to be a red glowing object with a white center resem,11/21/2010,36.6002778,-121.8936111
10/31/2002 06:40,yelm,wa,us,other,600,10 minutes,orange balls that stretched out for about 10 minutes.,11/4/2002,46.9422222,-122.6047222
10/31/2003 07:30,seattle,wa,us,light,15,10-15 seconds,a steaking light in the bright morning sky,11/11/2003,47.6063889,-122.3308333
10/31/2004 00:00,seattle,wa,us,fireball,10,10 seconds,3 of us were standing out on my deck halloween nite. we were talking about telescopes. i started to point at a star in the clear nite s,12/3/2004,47.6063889,-122.3308333
10/31/2004 19:30,tinley park,il,us,light,1200,20 min.,i think this may have been man made because of the slow speed involved  like drifting in the breeze.,11/9/2004,41.5733333,-87.7844444
10/31/2004 19:55,tinley park,il,us,light,900,15 min,3 small bright red lights evenly spaced but at a far distance moving in unison then coming together,11/2/2004,41.5733333,-87.7844444
10/31/2004 20:00,tinley park,il,us,light,1800,30 minutes,3 red lights movin e/se,7/16/2006,41.5733333,-87.7844444
10/31/2004 20:03,tinley park,il,us,triangle,240,2-4 minutes,three lights appeared to form a traingle,11/2/2004,41.5733333,-87.7844444
10/31/2004 20:20,orland hills,il,us,fireball,300,5 minutes,fire balls in the sky  form triangle  lasted 5 minutes. second sighting 45 minutes later lasted 5 minutes.,11/2/2004,41.5852778,-87.8430556
10/31/2004 22:00,arden,nc,us,circle,10,5-10 seconds,a bright object appeared suddenly  moved south  disappeared and was chased by jets.,11/9/2004,35.4661111,-82.5166667
10/31/2005 02:15,yonkers,ny,us,other,420,5-7 minutes,orange ball of light when noticed  became dark  had white and red strobe lights and pursued me,2/14/2006,40.9311111,-73.8991667
10/31/2005 19:00,scottsdale,az,us,triangle,600,10 mins,gilbert,12/12/2011,33.5091667,-111.8983333
10/31/2005 21:17,charlottesville,va,us,fireball,10,5-10 seconds,bright fiery contrail in eastern night sky,11/3/2005,38.0291667,-78.4769444
10/31/2006 17:40,portage,wi,us,light,10,< 10 seconds,2 rows of 4 orange lights over portage,12/7/2006,43.5391667,-89.4625000
10/31/2007 21:55,lombard,il,us,unknown,10,10 seconds,small circle or triangle with 3 dim white lights moving very quickly.,11/28/2007,41.8800000,-88.0077778
10/31/2008 18:53,moline,il,us,circle,240,4 min,two seperate orbs pass slowly over my house.,1/10/2009,41.5066667,-90.5150000
10/31/2008 22:00,fenton,mo,us,sphere,1800,30 minutes,saw three streaks in sky to right. looked up saw three orange spheres heading toward st. louis (but could see outer edges of round tria,1/10/2009,38.5130556,-90.4358333
10/31/2009 20:00,omaha,ne,us,sphere,180,3 minutes,strange orange orb on 10/31,12/12/2009,41.2586111,-95.9375000
10/31/2010 18:06,oak lawn,il,us,light,360,6 minutes,((hoax??))  i bet it was that chupacabra from the 80 s that i saw flying this want to be dish ufo,11/21/2010,41.7108333,-87.7580556
10/31/2010 23:50,bardstown,ky,us,chevron,900,15 mins,chevron shaped craft,12/12/2011,37.8091667,-85.4669444
10/31/2011 19:30,thousand oaks,ca,us,other,1800,about 30 minutes,green dot floating sudden acceleration,12/12/2011,34.1705556,-118.8366667
10/31/2012 19:20,annapolis,md,us,triangle,120,2 minutes,three blue slow blinking lights surrounding what appeared to be a very large wing appeared around 7:20pm in annapolis  md  the sky was,11/4/2012,38.9783333,-76.4925000
10/31/2013 01:00,virginia beach,va,us,light,15,15 seconds,3 white lights flying over the east coast just above the cloud ceiling moving like birds in formation,11/11/2013,36.8527778,-75.9783333
10/31/2013 21:00,edgewater,fl,us,formation,10,hours,6 blue lights in a single row. all of them equally distanced from eachother.everyone in the neighborhood watched them for hours. they n,11/11/2013,28.9886111,-80.9025000
10/3/1996 21:00,derby,ct,us,light,2400,30 - 40 minutes,two large lights were seen high in the sky. the objects swung around  changing position with one another  then the top object vanished.,3/7/1998,41.3205556,-73.0894444
10/3/1999 21:45,seattle,wa,us,teardrop,10,10 secs.,an eliptical-teardrop shaped object travelling approx.15-20 degrees above the horizon  from se to nw in a horizontal position  along se,10/19/1999,47.6063889,-122.3308333
10/3/2001 09:00,mission (canada),bc,ca,light,7200,2 hours,a bright baby blue light about twice the size of a normal bulb.,10/12/2001,49.133333,-122.3
10/3/2003 06:45,madison,oh,us,light,5,5 seconds,bright white light abruptly disappears in identical fashion as other examined tapes of ufo s,10/7/2003,41.7711111,-81.0500000
10/3/2004 09:15,victoria (canada),bc,ca,cigar,10,9-10 seconds,cigar shaped  white silver object  with dark ports on side hovered  breifly then dissappeared,10/27/2004,46.216667,-63.483333
10/3/2005 11:00,san jose,ca,us,formation,180,3 min,it was 11:00 am  my daughter 4 1/2 was our front feeding our dog  i was inside. then i hear her yell   momma  momma  come look at the s,10/11/2005,37.3394444,-121.8938889
10/3/2006 03:40,utica,ny,us,cigar,600,10 min,i was looking at the stars as i stopped on a rest area. at one point i seen these 2 stars moving  at first i thought it was a cloud pas,10/30/2006,43.1008333,-75.2330556
10/3/2006 23:25,orange,ca,us,other,600,10 minutes,oddly shaped object hovering above orange county  california  then flying off under power.,10/30/2006,33.7877778,-117.8522222
10/3/2007 22:00,lima,oh,us,circle,1200,20 minutes,lima  ohio circle black metal red white and blue object above us in country rd.,10/8/2007,40.7425000,-84.1052778
10/3/2009 03:30,hampden,me,us,light,120,2 minutes,a bright light in the treeline,10/10/2011,44.7444444,-68.8375000
10/3/2010 10:30,amelia,oh,us,changing,8,5-8 seconds,bright white object streaking across the front yard then disappearing.,11/21/2010,39.0283333,-84.2177778
10/3/2011 02:35,miles city,mt,us,formation,420,7 minutes,3 red objects bright moving then 3 white disperse from within,10/10/2011,46.4083333,-105.8400000
10/3/2012 14:45,wautoma,wi,us,sphere,120,2 minutes,glowing silvery orb/sphere over wautoma  wisconsin; numerous days and times,10/30/2012,44.0747222,-89.2877778
10/3/2013 01:30,baltimore (city line),md,us,light,25,25 seconds,on the evening of september 3rd  i was smoking a cigarette on my deck looking up at the westerly sky. this is a nightly routine for me,11/11/2013,39.2902778,-76.6125000
10/3/2013 21:23,harrington,wa,us,light,4,2-4 seconds,adult male witnesses two peculiar lights moving  in train   both of which flare up; not iridium satellites.,10/14/2013,47.4811111,-118.2533333
10/4/1998 02:45,albuquerque,nm,us,,60,1 minute +,very bright white light   appeared to be about half the diameter of the moon.,11/1/1998,35.0844444,-106.6505556
10/4/1999 03:00,rochester (mn)/to lacrosse (wi)  (driving),mn,us,light,7200,2+ hours,bright lights in the sky witnessed from highway,10/19/1999,44.0216667,-92.4697222
10/4/2000 22:47,richwood,tx,us,fireball,20,20 seconds,it looked like a fireball chasing after something.,12/2/2000,29.0558333,-95.4097222
10/4/2002 19:05,el paso,tx,us,formation,10,10 seconds,v-shaped ufo appears across the skies at el paso  texas racing from north to south,11/9/2002,31.7586111,-106.4863889
10/4/2003 23:05,kansas city,ks,us,changing,1200,20 min.,flashing  skipping lights from a disc shaped object moving extremely fast in kansas city.,10/7/2003,39.1141667,-94.6272222
10/4/2005 18:30,bonne terre,mo,us,triangle,1800,30 mins,15- 20 mins 10/04/2005 a triangle shaped object in the western sky with a blue  orange and red light bonne terre mo.,10/11/2005,37.9230556,-90.5552778
10/4/2006 14:30,lancaster,ca,us,disk,300,3-5 minutes,while taking pictures of clouds  observed dics shaped object hovering in front of the clouds.,10/30/2006,34.6980556,-118.1358333
10/4/2007 19:00,burkeville,va,us,light,300,5 minutes,red lights flashing and moving erratically through the sky,10/8/2007,37.1875000,-78.2016667
10/4/2008 23:15,providence,ri,us,oval,60,approximately 1 minute,3 illuminated oval objects spotted flying closely together.,10/31/2008,41.8238889,-71.4133333
10/4/2010 20:30,franklin,in,us,triangle,300,5 mins or longer,i saw along both sides of the interstate 3 triangle shaped objects with 2 bright lights in the middle on the bottom of them.,11/21/2010,39.4805556,-86.0550000
10/4/2012 19:30,roxbury,ct,us,oval,600,10 minutes,it was a green light circling above the cloudline above my house.,10/30/2012,41.5563889,-73.3091667
10/4/2013 00:34,manor,tx,us,light,300,5:00,a glaring bright light which moved slowy towards us (e) for approx. 1:00 then it began to turn and move away for 4:00. the light w,10/14/2013,30.3405556,-97.5566667
10/4/2013 20:10,south point,oh,us,circle,1200,20 minutes,dark spinning object seen after seeing 5 orange globes.,10/14/2013,38.4177778,-82.5863889
10/4/2013 22:30,maryville,tn,us,circle,60,1 minute,huge circular bright light.,10/14/2013,35.7563889,-83.9705556
10/5/1990 22:00,fergus (canada),on,ca,rectangle,180,3min,football field sized craft battlestar galacticaonly remember waking up the next morning with no memory of going to bed and was not even,5/15/2006,43.7,-80.366667
10/5/1999 21:00,chesapeake,va,us,other,30,30 seconds,i was doing some observations for my astronomy class tonight and i saw something very strange.  i was looking west about forty five deg,10/19/1999,36.8188889,-76.2752778
10/5/2001 15:00,key west,fl,us,rectangle,600,10 mins,u.f.o hovers over cruise ship key west flordia 2001 ..,8/12/2008,24.5552778,-81.7827778
10/5/2002 19:56,ione,ca,us,formation,12,12 seconds,very fast silent   v formation  5-6  points of light  north to south  fairly low  not blinking  reddish hue. fast.,10/15/2002,38.3527778,-120.9316667
10/5/2004 13:35,hayward,ca,us,light,600,10 minutes,lights above hayward  ca,10/27/2004,37.6688889,-122.0797222
10/5/2005 21:00,toledo,oh,us,light,2880,48 min,point source of light observed for 48 min in rapid acceleration and deceleration and apparent stationary flight,10/11/2005,41.6638889,-83.5552778
10/5/2006 23:00,st. charles,il,us,formation,1200,20 minutes,strange deep red light very slowly tracing over rural st charles  il,10/30/2006,41.9141667,-88.3086111
10/5/2007 23:55,van alstyne,tx,us,rectangle,4,3 to 4 seconds,4 slanted shimmering/plusing rectangles in eastern sky. very symmetrical and evenly spaced.,11/28/2007,33.4213889,-96.5769444
10/5/2009 22:00,mebane,nc,us,other,45,45 seconds,i was smoking a cigarette on my porch  in the farm house i just moved into when what i thought was a jet coming over my house. i just m,12/12/2009,36.0958333,-79.2672222
10/5/2011 00:00,cypress,ca,us,triangle,5,5 seconds,i saw a triangle shape thing i live 20 minutes away from lax this thing was higher than a plane landing and super super huge triangle t,1/12/2012,33.8169444,-118.0363889
10/5/2011 20:34,rockton,il,us,cone,360,6 min,it looked like a planet like jupiter.,10/10/2011,42.4525000,-89.0722222
10/5/2012 18:45,lexington,ma,us,unknown,30,30 seconds?,strange flying lights in the nights sky,10/30/2012,42.4472222,-71.2250000
10/5/2012 22:30,excelsior,mn,us,triangle,180,3 minutes,speed and height of aircraft was not sustainable by anything but a helicopter for the two minute duration of observation,10/30/2012,44.9033333,-93.5661111
10/5/2013 18:00,dane county,wi,us,fireball,14400,3-4 hours?,fire balls arrive in dane county  wi.,10/14/2013,43.2505556,-89.5013889
10/5/2013 21:00,spokane,wa,us,sphere,300,5 minutes,multiple orange orbs over downtown spokane.,10/14/2013,47.6588889,-117.4250000
10/6/1973 09:00,el centro (a few miles west of),ca,us,light,1800,about 1/2 hour,orange nocturnal light,8/5/2001,32.7919444,-115.5622222
10/6/1999 19:32,wichita,ks,us,light,15,10-15 seconds,i cannot call this a report of a flying object...it is more a report of a light in the sky. i was standing in my front yard  facing sou,10/19/1999,37.6922222,-97.3372222
10/6/2002 05:50,inwood,ny,us,light,5,0:5,big dipper has loose star,10/15/2002,40.6219444,-73.7472222
10/6/2003 11:45,rainbow lakes estates,fl,us,other,45,45 seconds,ghost airplane  so large dissapears with no sound in day time.,10/31/2003,29.1458333,-82.4994444
10/6/2004 20:00,monroeville,nj,us,triangle,180,3 minutes,bright orange lights silently andl slowly move high among the stars and then desend quickly and hoovered over my car...,10/27/2004,39.6288889,-75.1597222
10/6/2005 11:00,park forest,il,us,oval,300,5 mins,i saw 3 round strange looking objects in the sky,10/11/2005,41.4913889,-87.6744444
10/6/2006 18:00,centerville,oh,us,changing,7200,2 hours,dayton oh. very bright round objects in a group of 10  then 2 very different shapes and 1 stationary object,10/30/2006,39.6283333,-84.1594444
10/6/2007 20:00,huntington beach,ca,us,rectangle,900,10-15 minutes,ufo sighting over hungtington beach ca  cluster of lights in diamond shape  several witnesses,11/28/2007,33.6602778,-117.9983333
10/6/2008 11:10,hadley,ma,us,oval,12,12 seconds,flat circular cloud formation falling from the sky as if heavy then hovering,10/31/2008,42.3416667,-72.5888889
10/6/2009 20:45,gary,in,us,light,2700,45 min,a  group of lights with strange and independent movement were hovering over the southern shores of lake michigan,12/12/2009,41.5933333,-87.3463889
10/6/2010 21:00,williamsburg,va,us,oval,60,1-min,helicopter chasing an oval shaped craft outer part black and the middle was glowing green .,11/21/2010,37.2705556,-76.7077778
10/6/2011 20:35,macon,ga,us,fireball,15,10-15 seconds,fireball object that looked like exploded above ground about power line height continued going down road.,10/10/2011,32.8405556,-83.6325000
10/6/2012 00:40,cranston,ri,us,,90,90 seconds,i am a retired plychologist age 64. i sit out every night till about 2pm facing the south. i saw  a large round orange ball  like a pu,10/30/2012,41.7797222,-71.4377778
10/6/2012 20:20,hollywood,fl,us,fireball,120,2 minutes,on october 6  2012 i observed a torchlike like drifting over hollywood  fl for about 2 minutes which then rose into the cloud cover,10/30/2012,26.0108333,-80.1497222
10/6/2012 22:45,rockport,ma,us,circle,300,5 minutes,glowing low flying lights in formation over rockport  ma.,10/30/2012,42.6555556,-70.6208333
10/6/2013 20:00,longmont,co,us,light,3,3 seconds,streak of light.,10/14/2013,40.1672222,-105.1013889
10/7/1982 23:00,new haven,ct,us,triangle,600,10 minutes,i  and another individual  observed a triangular-shaped  multi-colored  silent object slowly traverse the night sky of new haven  conn.,5/11/2005,41.3080556,-72.9286111
10/7/2000 02:45,palm desert,ca,us,triangle,30,30 seconds,large dark triangle . small white lights at each corner.,12/2/2000,33.7222222,-116.3736111
10/7/2002 11:28,jersey city,nj,us,sphere,30,30 seconds,copper sphere sighted over jersey city . sphere maintains consistent altitude.,10/15/2002,40.7280556,-74.0780556
10/7/2003 07:40,pleasant hill,mo,us,oval,1200,20 min.,i saw 6 very bright lights perfectly spaced apart and they werent moving  when we cam back to were they were 5 min later they were gone,10/7/2003,38.7910000,-94.2673000
10/7/2004 09:00,effingham,il,us,rectangle,1,1 second,it flew across the sky and was gone in one second,10/27/2004,39.1200000,-88.5433333
10/7/2006 02:00,blacksburg,va,us,light,300,5 min?,ball of light at rotc training,10/30/2006,37.2294444,-80.4141667
10/7/2007 11:00,laguna hills,ca,us,disk,600,5 - 10 minutes,something high above the planes in orange county?,10/8/2007,33.6125000,-117.7119444
10/7/2008 20:00,lyman,wy,us,flash,600,10 minutes,red/silver flashing light going across the sky toward the south west.,10/31/2008,41.3275000,-110.2922222
10/7/2009 20:10,seattle,wa,us,other,10,10 sec,brief sighting of object with faint amber lights traveling over seattle,12/12/2009,47.6063889,-122.3308333
10/7/2011 11:22,jacksonville,fl,us,fireball,1,split second,five orange  purple  and cobalt and white balls of light flashed across night sky.,12/12/2011,30.3319444,-81.6558333
10/7/2012 05:50,st. catharines (canada),on,ca,unknown,300,5 minutes,three stationary alternating red lights and one white light not moving visible from qew at dawn,10/30/2012,43.166667,-79.233333
10/7/2013 07:40,carson city,nv,us,,3,3 seconds,no object seen; however while driving down  carson river road my driving lights went off on their own for approximately 3 seconds.   it,10/14/2013,39.1638889,-119.7663889
10/8/1973 18:30,tupelo,ms,us,disk,4,4 sec,father and daughter sees disc over tupelo  ms.,7/23/2000,34.2575000,-88.7033333
10/8/1999 23:15,detroit lakes (18 miles east of),mn,us,triangle,120,2 minutes,triangular formation of 3 lights moving at the speed and appearance of satelites.the center blocked out stars as it moved from west/nw,10/19/1999,46.8172222,-95.8450000
10/8/2001 00:00,wigan (uk/england),,gb,triangle,180,3 mins,there were seven crafts flying in formation but one was slightly out of formation to the right.they were the colour of a hot coal orang,1/17/2004,53.533333,-2.616667
10/8/2003 19:30,kennedyville,md,us,light,3600,about an hour,mr. davenport  i reported a sighting that occurred on 10/8/03.you commented on the ufocenter website that you think that i may have,11/8/2003,39.3052778,-75.9952778
10/8/2005 02:00,searcy,ar,us,oval,240,3-4 minutes,a ovular/circular object flew by me towards the south  almost stopped  slowly traveled for a few minutes  shot away  and then came back,10/20/2005,35.2505556,-91.7361111
10/8/2006 17:30,scarborough,me,us,light,900,10 - 15 minutes,very fast moving lights  chasing  each other and moving very eratically,10/30/2006,43.5780556,-70.3222222
10/8/2008 18:00,o fallon,mo,us,sphere,2700,45 min.,very fast white spheroid objects followed by stealths.,10/31/2008,38.8105556,-90.6997222
10/8/2008 22:00,spokane,wa,us,unknown,15,15 seconds,triangle shaped 3 lights with one big red light on bottom of craft.,10/31/2008,47.6588889,-117.4250000
10/8/2010 01:02,oak lawn,il,us,light,120,2 minutes,medium size star moving very slowing than disappear and more same thing again later on.  ((nuforc note:  possible satellites.  pd)),11/21/2010,41.7108333,-87.7580556
10/8/2010 20:05,peoria,az,us,oval,300,5 min,october 8  2010 8:05 pm  we were at a back yard barbeque. we looked up to the west sky approximately at 45-50 degrees from the horizon,11/21/2010,33.5805556,-112.2366667
10/8/2011 19:00,kennewick,wa,us,disk,1500,25 minutes,at 7pm tonight i saw an orange and very bright ball of light appear in the south east sky. it was followed about 30 seconds apart form,10/10/2011,46.2113889,-119.1361111
10/8/2011 21:35,hilliard,oh,us,sphere,30,30 seconds,brilliant reddish-orange sphere with white flame near columbus  ohio.,7/4/2012,40.0333333,-83.1583333
10/8/2012 17:10,obernheim (germany),,de,triangle,2,seconds,ufo appeared on photo taken of obernheim in germany.,11/19/2012,49.366667,7.583333
10/8/2013 04:00,natchez,ms,us,circle,30,30 seconds,very bright fast moving orb(s).,10/14/2013,31.5602778,-91.4030556
10/8/2013 20:00,ashfield,pa,us,light,180,3 minutes,a light appear in the sky out of nowhere and changed direction at a slow moving pace until it vanished.,10/14/2013,40.7844444,-75.7138889
10/9/1992 08:00,seminole,tx,us,rectangle,30,30 seconds,i saw a ufo very clearly and can describe it to a tee.,11/20/2013,32.7188889,-102.6444444
10/9/1999 00:33,los angeles (metropolitan area - koreatown),ca,us,triangle,29,29 seconds,triangular shaped object in atmosphere 4.5-5.0 degrees in size traversing from northwest to southeast.,10/19/1999,34.0522222,-118.2427778
10/9/2002 15:21,new westminster (canada),bc,ca,circle,30,25 - 30 seconds,2 disc shaped gray objects seen over new westminster,10/15/2002,49.216667,-122.916667
10/9/2003 21:30,port orange,fl,us,disk,5,5 seconds,three red disks flying from west to east in a staggered formation  spanning the sky in five seconds at a high altitude.,3/17/2004,29.1380556,-80.9958333
10/9/2005 18:00,garden city,id,us,other,60,1.min,apple or urn shaped objects flying with birds following a commercial aircraft,10/30/2006,43.6222222,-116.2372222
10/9/2007 00:00,lake bluff,il,us,unknown,9000,2 hrs 30 min,red/blue lights moving around object with bright white light in tight formation,11/28/2007,42.2788889,-87.8341667
10/9/2008 01:00,santa maria,ca,us,other,15,15seconds,an od shaped object with lights along the bottom outline  that glided at high speed  yet disappeaered instantlly,10/31/2008,34.9530556,-120.4347222
10/9/2008 21:08,milwaukee,wi,us,light,3,2-3 seconds,light moved faster than any jet i ve seen and turned 90 degrees in a millisecond toward chicago,10/31/2008,43.0388889,-87.9063889
10/9/2009 19:30,new york city,ny,us,unknown,15,15 sec,flying in a southwest flight at 30ꯠ feet i look down at nyc and see a strange translucent cloud that distorted the lights below it.,12/12/2009,40.7141667,-74.0063889
10/9/2010 09:00,dunedin,fl,us,triangle,21600,6 hours,ufo s over dunedin  fl nightly.  ((nuforc note:  we do not know what the witness is observing.  pd)),11/21/2010,28.0194444,-82.7719444
10/9/2010 21:20,belmar,nj,us,light,120,1 - 2 minutes,orange ball crossing over belmar  nj,11/21/2010,40.1783333,-74.0222222
10/9/2011 18:20,salem,nh,us,unknown,20,20 seconds,bright star-like object/ light fades into sky rapidly.,10/19/2011,42.7883333,-71.2013889
10/9/2011 22:56,river falls,wi,us,fireball,120,1 1/2 minutes,2 yellowish/orange objects passing from south the northwest in western wisconsin,10/10/2011,44.8613889,-92.6236111
10/9/2012 19:00,collingswood,nj,us,fireball,120,2 minutes,orange sphere over philadelphia.,10/30/2012,39.9180556,-75.0716667
10/9/2013 17:00,wellington,oh,us,egg,300,5 minutes,shiny object only 500 yards off the ground the size of a small plane with no wings moving very slowly for 5 min  south to north.,10/14/2013,41.1688889,-82.2180556
10/9/2013 21:35,dodgeville,wi,us,light,300,5 minutes,orange light moving across the sky from south to north  eventually flickering and dissapearing.,10/14/2013,42.9602778,-90.1300000
1/10/1977 11:00,adelaide (south australia),,au,disk,30,30 seconds,several people  witnessed positive ufo on clear day.,10/7/2003,-34.928661,138.598633
1/10/1996 18:50,meadville,pa,us,,1800,30 min.,father and son witness a very peculiar  multi-colored light  as it appeared to rotate.,7/29/2010,41.6413889,-80.1516667
1/10/1999 19:00,newark,de,us,fireball,1.5,1.5 sec,quickly moving bluish/green light w/ tail. meteor?,4/2/1999,39.6836111,-75.7500000
1/10/2001 15:00,berlin,ma,us,disk,1200,20 min,i can prove beyond a reasonable doubt that what i saw was not manufactured by a human being.,4/22/2003,42.3811111,-71.6375000
1/10/2003 10:00,princess anne,md,us,other,420,5-7 min,pulsating lights  over pr. anne..md,11/3/2005,38.2027778,-75.6927778
1/10/2003 23:15,victoria (canada),bc,ca,flash,4,4 seconds,i ve been meaning to write this for sometime.  i believe the date was jan 10  2003 - might have been the week before.  4 of us were sit,5/2/2003,46.216667,-63.483333
1/10/2005 10:15,savannah,ga,us,sphere,15,15 seconds,this white dot was moving across the sky from the nw to se in savannah ga about 10:15 am on 1/10/05. no noise. it went into the clouds,2/8/2005,32.0833333,-81.1000000
1/10/2006 04:00,la crosse,wi,us,other,300,5 minuets,i was skiing on my birthday  and while i was going up the ski lift i saw what looked like a burning boomerang.it was falling out of the,5/15/2006,43.8013889,-91.2394444
1/10/2007 20:30,sydney (australia),,au,light,240,4 minutes,bright light moves north to south quickly in the sky over sydney,2/1/2007,-33.861481,151.205475
1/10/2008 02:00,seminole,ok,us,circle,1200,20 minutes,a btight  white  flashing light followed my car and then got dircectly above my car for 2 blocks until it flew away very fast.,1/21/2008,35.2244444,-96.6702778
1/10/2009 16:30,cocoa,fl,us,oval,900,15 minutes,9 bright/white  colorful  oval objects in 3 different formations all travelling ne over cocoa fl.1/10/2009,3/19/2009,28.3858333,-80.7422222
1/10/2010 05:45,round rock,tx,us,light,2,2 seconds,3 fast-moving lights over round rock texas,2/14/2010,30.5080556,-97.6786111
1/10/2011 05:30,o neals,ca,us,light,180,3 minutes,solid white light spotted at dusk  flying across the sky. it took 3 miraculous 90 degree turns before the light disappeared altogether,1/31/2011,37.1283333,-119.6933333
1/10/2012 12:46,pawling,ny,us,triangle,7200,2 hours,it was the bigest craft i have evet seen.,1/12/2012,41.5619444,-73.6030556
1/10/2012 22:00,athens,il,us,triangle,120,2 minutes,triangular ufo turns into 2.,2/27/2014,39.9608333,-89.7238889
1/10/2014 06:30,coal creek,co,us,sphere,1200,20 minutes,large  yellowish white reflective sphere with no lights  no sound  no exhaust trail.,1/10/2014,38.3611111,-105.1477778
11/10/1967 08:30,liverpool (uk/england),,gb,cylinder,300,5mins,the object just hovered very close to me with no sound silver and red like a plane with no wings,2/18/2001,53.416667,-3
11/10/1995 19:50,beaverton,or,us,,2400,40 min.,family returns from restaurant and notice  emerald green beam  of light going horizontally over their home. beam ended abruptly.,11/2/1999,45.4872222,-122.8025000
11/10/1998 18:48,fresno (northeast of),ca,us,light,20,15-20 sec.,two white lights beneath clouds-one fell at a 90 degree angle straight down  blinking continouslyand then stopped over the san joaquin,11/19/1998,36.7477778,-119.7713889
11/10/2000 16:00,paso robles,ca,us,rectangle,600,10 minutes,huge and motionless no lights and a silver or grey color rectangular in shape,4/28/2001,35.6266667,-120.6900000
11/10/2002 20:30,ivesdale,il,us,light,30,30 seconds,while standing on my front porch looking west i noticed a white light about 4 inches in sizes.  the white light was not moving and at f,12/23/2002,39.9433333,-88.4552778
11/10/2004 02:00,avon,ny,us,unknown,120,2 minutes,green laser finds object flying overhead,9/2/2005,42.9119444,-77.7458333
11/10/2005 18:15,east grand forks,mn,us,unknown,900,10 to 15 minutes,this all started when i was going to wash my dishes since they were soaking in the sink. but  i looked outside and i seen this bright l,12/16/2005,47.9300000,-97.0241667
